$GPGGA,190704.000,5926.2864,N,02444.7290,E,1,6,1.22,24.5,M,19.8,M,,*69
$GPGGA,190705.000,5926.2857,N,02444.7286,E,1,6,1.22,25.1,M,19.8,M,,*6A
$GPGGA,190706.000,5926.2855,N,02444.7279,E,1,6,1.22,25.3,M,19.8,M,,*69
$GPGGA,190707.000,5926.2855,N,02444.7274,E,1,6,1.22,25.5,M,19.8,M,,*63
$GPGGA,190708.000,5926.2855,N,02444.7275,E,1,6,1.22,25.8,M,19.8,M,,*60
$GPGGA,190709.000,5926.2855,N,02444.7276,E,1,6,1.22,26.2,M,19.8,M,,*6B
$GPGGA,190710.000,5926.2855,N,02444.7277,E,1,6,1.22,26.4,M,19.8,M,,*64
$GPGGA,190711.000,5926.2855,N,02444.7278,E,1,6,1.22,26.6,M,19.8,M,,*68
$GPGGA,190712.000,5926.2856,N,02444.7279,E,1,6,1.22,26.8,M,19.8,M,,*67
$GPGGA,190713.000,5926.2857,N,02444.7280,E,1,6,1.22,26.9,M,19.8,M,,*60
$GPGGA,190714.000,5926.2857,N,02444.7282,E,1,6,1.22,27.0,M,19.8,M,,*6D
$GPGGA,190715.000,5926.2858,N,02444.7284,E,1,6,1.22,27.1,M,19.8,M,,*64
$GPGGA,190716.000,5926.2858,N,02444.7285,E,1,6,1.22,27.2,M,19.8,M,,*65
$GPGGA,190717.000,5926.2859,N,02444.7285,E,1,6,1.22,27.3,M,19.8,M,,*64
$GPGGA,190718.000,5926.2860,N,02444.7283,E,1,6,1.22,27.3,M,19.8,M,,*67
$GPGGA,190719.000,5926.2862,N,02444.7282,E,1,6,1.22,27.4,M,19.8,M,,*62
$GPGGA,190720.000,5926.2863,N,02444.7284,E,1,6,1.22,27.0,M,19.8,M,,*6B
$GPGGA,190721.000,5926.2863,N,02444.7284,E,1,6,1.22,26.9,M,19.8,M,,*62
$GPGGA,190722.000,5926.2864,N,02444.7278,E,1,6,1.22,26.5,M,19.8,M,,*69
$GPGGA,190723.000,5926.2864,N,02444.7278,E,1,6,1.22,26.3,M,19.8,M,,*6E
$GPGGA,190724.000,5926.2864,N,02444.7277,E,1,6,1.22,26.3,M,19.8,M,,*66
$GPGGA,190725.000,5926.2864,N,02444.7277,E,1,6,1.22,26.3,M,19.8,M,,*67
$GPGGA,190726.000,5926.2864,N,02444.7277,E,1,6,1.22,26.3,M,19.8,M,,*64
$GPGGA,190727.000,5926.2864,N,02444.7277,E,1,6,1.22,26.4,M,19.8,M,,*62
$GPGGA,190728.000,5926.2864,N,02444.7278,E,1,6,1.22,26.4,M,19.8,M,,*62
$GPGGA,190729.000,5926.2864,N,02444.7279,E,1,6,1.22,26.4,M,19.8,M,,*62
$GPGGA,190730.000,5926.2865,N,02444.7281,E,1,6,1.22,26.3,M,19.8,M,,*6B
$GPGGA,190731.000,5926.2865,N,02444.7282,E,1,6,1.22,26.3,M,19.8,M,,*69
$GPGGA,190732.000,5926.2865,N,02444.7284,E,1,6,1.22,26.3,M,19.8,M,,*6C
$GPGGA,190733.000,5926.2865,N,02444.7285,E,1,6,1.22,26.3,M,19.8,M,,*6C
$GPGGA,190734.000,5926.2865,N,02444.7287,E,1,6,1.22,26.3,M,19.8,M,,*69
$GPGGA,190735.000,5926.2865,N,02444.7287,E,1,6,1.22,26.3,M,19.8,M,,*68
$GPGGA,190736.000,5926.2865,N,02444.7287,E,1,6,1.22,26.3,M,19.8,M,,*6B
$GPGGA,190737.000,5926.2865,N,02444.7287,E,1,6,1.22,26.3,M,19.8,M,,*6A
$GPGGA,190738.000,5926.2865,N,02444.7287,E,1,6,1.22,26.3,M,19.8,M,,*65
$GPGGA,190739.000,5926.2865,N,02444.7287,E,1,6,1.22,26.3,M,19.8,M,,*64
$GPGGA,190740.000,5926.2865,N,02444.7288,E,1,6,1.22,26.3,M,19.8,M,,*65
$GPGGA,190741.000,5926.2865,N,02444.7288,E,1,6,1.22,26.3,M,19.8,M,,*64
$GPGGA,190742.000,5926.2865,N,02444.7289,E,1,6,1.22,26.3,M,19.8,M,,*66
$GPGGA,190743.000,5926.2864,N,02444.7290,E,1,6,1.22,26.3,M,19.8,M,,*6E
$GPGGA,190744.000,5926.2864,N,02444.7290,E,1,6,1.22,26.3,M,19.8,M,,*69
$GPGGA,190745.000,5926.2864,N,02444.7291,E,1,6,1.22,26.3,M,19.8,M,,*69
$GPGGA,190746.000,5926.2863,N,02444.7293,E,1,6,1.22,26.3,M,19.8,M,,*6F
$GPGGA,190747.000,5926.2863,N,02444.7294,E,1,6,1.22,26.4,M,19.8,M,,*6E
$GPGGA,190748.000,5926.2862,N,02444.7296,E,1,6,1.22,26.4,M,19.8,M,,*62
$GPGGA,190749.000,5926.2862,N,02444.7297,E,1,5,1.31,26.4,M,19.8,M,,*63
$GPGGA,190750.000,5926.2861,N,02444.7302,E,1,5,1.31,26.7,M,19.8,M,,*66
$GPGGA,190751.000,5926.2861,N,02444.7308,E,1,5,1.31,26.9,M,19.8,M,,*63
$GPGGA,190752.000,5926.2860,N,02444.7318,E,1,5,1.31,26.9,M,19.8,M,,*60
$GPGGA,190753.000,5926.2860,N,02444.7326,E,1,5,1.31,27.0,M,19.8,M,,*64
$GPGGA,190754.000,5926.2860,N,02444.7330,E,1,5,1.40,27.2,M,19.8,M,,*60
$GPGGA,190755.000,5926.2860,N,02444.7332,E,1,5,1.40,27.3,M,19.8,M,,*62
$GPGGA,190756.000,5926.2857,N,02444.7332,E,1,6,1.33,27.5,M,19.8,M,,*64
$GPGGA,190757.000,5926.2857,N,02444.7332,E,1,6,1.33,27.8,M,19.8,M,,*68
$GPGGA,190758.000,5926.2857,N,02444.7334,E,1,6,1.33,27.9,M,19.8,M,,*60
$GPGGA,190759.000,5926.2857,N,02444.7334,E,1,6,1.33,28.1,M,19.8,M,,*66
$GPGGA,190800.000,5926.2857,N,02444.7335,E,1,6,1.33,28.2,M,19.8,M,,*67
$GPGGA,190801.000,5926.2857,N,02444.7336,E,1,6,1.33,28.3,M,19.8,M,,*64
$GPGGA,190802.000,5926.2857,N,02444.7336,E,1,6,1.33,28.5,M,19.8,M,,*61
$GPGGA,190803.000,5926.2856,N,02444.7337,E,1,6,1.33,28.6,M,19.8,M,,*63
$GPGGA,190804.000,5926.2856,N,02444.7338,E,1,6,1.33,28.7,M,19.8,M,,*6A
$GPGGA,190805.000,5926.2856,N,02444.7338,E,1,6,1.33,28.9,M,19.8,M,,*65
$GPGGA,190806.000,5926.2856,N,02444.7339,E,1,6,1.33,29.1,M,19.8,M,,*6E
$GPGGA,190807.000,5926.2855,N,02444.7340,E,1,6,1.33,29.2,M,19.8,M,,*61
$GPGGA,190808.000,5926.2855,N,02444.7342,E,1,6,1.33,29.4,M,19.8,M,,*6A
$GPGGA,190809.000,5926.2855,N,02444.7343,E,1,6,1.33,29.6,M,19.8,M,,*68
$GPGGA,190810.000,5926.2854,N,02444.7344,E,1,6,1.33,29.8,M,19.8,M,,*68
$GPGGA,190811.000,5926.2854,N,02444.7345,E,1,6,1.33,30.0,M,19.8,M,,*68
$GPGGA,190812.000,5926.2854,N,02444.7346,E,1,6,1.33,30.2,M,19.8,M,,*6A
$GPGGA,190813.000,5926.2853,N,02444.7347,E,1,6,1.33,30.4,M,19.8,M,,*6B
$GPGGA,190814.000,5926.2853,N,02444.7349,E,1,6,1.33,30.6,M,19.8,M,,*60
$GPGGA,190815.000,5926.2852,N,02444.7350,E,1,6,1.33,30.8,M,19.8,M,,*66
$GPGGA,190816.000,5926.2852,N,02444.7351,E,1,6,1.33,31.0,M,19.8,M,,*6D
$GPGGA,190817.000,5926.2852,N,02444.7353,E,1,6,1.33,31.3,M,19.8,M,,*6D
$GPGGA,190818.000,5926.2851,N,02444.7354,E,1,6,1.33,31.5,M,19.8,M,,*60
$GPGGA,190819.000,5926.2851,N,02444.7355,E,1,6,1.33,31.8,M,19.8,M,,*6D
$GPGGA,190820.000,5926.2851,N,02444.7356,E,1,6,1.33,32.0,M,19.8,M,,*6F
$GPGGA,190821.000,5926.2851,N,02444.7358,E,1,6,1.33,32.3,M,19.8,M,,*63
$GPGGA,190822.000,5926.2851,N,02444.7359,E,1,6,1.33,32.6,M,19.8,M,,*64
$GPGGA,190823.000,5926.2850,N,02444.7361,E,1,6,1.33,32.8,M,19.8,M,,*61
$GPGGA,190824.000,5926.2850,N,02444.7363,E,1,6,1.33,33.1,M,19.8,M,,*6C
$GPGGA,190825.000,5926.2850,N,02444.7365,E,1,6,1.33,33.4,M,19.8,M,,*6E
$GPGGA,190826.000,5926.2849,N,02444.7368,E,1,5,1.40,33.7,M,19.8,M,,*6C
$GPGGA,190827.000,5926.2849,N,02444.7370,E,1,5,1.40,34.0,M,19.8,M,,*64
$GPGGA,190828.000,5926.2849,N,02444.7373,E,1,5,1.40,34.3,M,19.8,M,,*6B
$GPGGA,190829.000,5926.2848,N,02444.7375,E,1,5,1.40,34.6,M,19.8,M,,*68
$GPGGA,190830.000,5926.2848,N,02444.7376,E,1,5,1.40,34.9,M,19.8,M,,*6C
$GPGGA,190831.000,5926.2847,N,02444.7378,E,1,5,1.40,35.2,M,19.8,M,,*66
$GPGGA,190832.000,5926.2847,N,02444.7378,E,1,5,1.40,35.5,M,19.8,M,,*62
$GPGGA,190833.000,5926.2846,N,02444.7379,E,1,5,1.40,35.9,M,19.8,M,,*6F
$GPGGA,190834.000,5926.2846,N,02444.7379,E,1,5,1.40,36.2,M,19.8,M,,*60
$GPGGA,190835.000,5926.2845,N,02444.7380,E,1,5,1.40,36.5,M,19.8,M,,*63
$GPGGA,190836.000,5926.2845,N,02444.7381,E,1,5,1.40,36.9,M,19.8,M,,*6D
$GPGGA,190837.000,5926.2844,N,02444.7381,E,1,5,1.40,37.2,M,19.8,M,,*67
$GPGGA,190838.000,5926.2844,N,02444.7382,E,1,5,1.40,37.6,M,19.8,M,,*6F
$GPGGA,190839.000,5926.2844,N,02444.7384,E,1,6,1.33,38.0,M,19.8,M,,*66
$GPGGA,190840.000,5926.2843,N,02444.7385,E,1,6,1.33,38.4,M,19.8,M,,*6A
$GPGGA,190841.000,5926.2843,N,02444.7388,E,1,6,1.33,38.9,M,19.8,M,,*6B
$GPGGA,190842.000,5926.2843,N,02444.7390,E,1,6,1.33,39.3,M,19.8,M,,*6A
$GPGGA,190843.000,5926.2842,N,02444.7392,E,1,6,1.33,39.7,M,19.8,M,,*6C
$GPGGA,190844.000,5926.2842,N,02444.7395,E,1,6,1.33,40.2,M,19.8,M,,*67
$GPGGA,190845.000,5926.2841,N,02444.7398,E,1,6,1.33,40.7,M,19.8,M,,*6D
$GPGGA,190846.000,5926.2841,N,02444.7400,E,1,6,1.33,41.2,M,19.8,M,,*6C
$GPGGA,190847.000,5926.2840,N,02444.7403,E,1,6,1.33,41.7,M,19.8,M,,*6A
$GPGGA,190848.000,5926.2840,N,02444.7406,E,1,6,1.33,42.1,M,19.8,M,,*65
$GPGGA,190849.000,5926.2839,N,02444.7408,E,1,6,1.33,42.6,M,19.8,M,,*63
$GPGGA,190850.000,5926.2839,N,02444.7410,E,1,6,1.33,43.1,M,19.8,M,,*64
$GPGGA,190851.000,5926.2839,N,02444.7413,E,1,6,1.33,43.5,M,19.8,M,,*62
$GPGGA,190852.000,5926.2838,N,02444.7414,E,1,6,1.33,43.9,M,19.8,M,,*6B
$GPGGA,190853.000,5926.2838,N,02444.7415,E,1,6,1.33,44.4,M,19.8,M,,*61
$GPGGA,190854.000,5926.2838,N,02444.7416,E,1,6,1.33,44.7,M,19.8,M,,*66
$GPGGA,190855.000,5926.2837,N,02444.7417,E,1,6,1.33,45.1,M,19.8,M,,*6E
$GPGGA,190856.000,5926.2837,N,02444.7417,E,1,6,1.33,45.5,M,19.8,M,,*69
$GPGGA,190857.000,5926.2837,N,02444.7417,E,1,6,1.33,45.8,M,19.8,M,,*65
$GPGGA,190858.000,5926.2837,N,02444.7417,E,1,6,1.33,46.1,M,19.8,M,,*60
$GPGGA,190859.000,5926.2836,N,02444.7418,E,1,6,1.33,46.4,M,19.8,M,,*6A
$GPGGA,190900.000,5926.2836,N,02444.7417,E,1,6,1.33,46.7,M,19.8,M,,*6B
$GPGGA,190901.000,5926.2836,N,02444.7417,E,1,6,1.33,47.0,M,19.8,M,,*6C
$GPGGA,190902.000,5926.2835,N,02444.7416,E,1,6,1.33,47.2,M,19.8,M,,*6F
$GPGGA,190903.000,5926.2835,N,02444.7415,E,1,6,1.33,47.5,M,19.8,M,,*6A
$GPGGA,190904.000,5926.2835,N,02444.7414,E,1,6,1.33,47.7,M,19.8,M,,*6E
$GPGGA,190905.000,5926.2835,N,02444.7413,E,1,6,1.33,47.9,M,19.8,M,,*66
$GPGGA,190906.000,5926.2835,N,02444.7413,E,1,6,1.33,48.1,M,19.8,M,,*62
$GPGGA,190907.000,5926.2835,N,02444.7413,E,1,6,1.33,48.2,M,19.8,M,,*60
$GPGGA,190908.000,5926.2835,N,02444.7413,E,1,6,1.33,48.3,M,19.8,M,,*6E
$GPGGA,190909.000,5926.2835,N,02444.7414,E,1,6,1.33,48.4,M,19.8,M,,*6F
$GPGGA,190910.000,5926.2835,N,02444.7414,E,1,6,1.33,48.5,M,19.8,M,,*66
$GPGGA,190911.000,5926.2835,N,02444.7415,E,1,6,1.33,48.5,M,19.8,M,,*66
$GPGGA,190912.000,5926.2835,N,02444.7415,E,1,6,1.33,48.6,M,19.8,M,,*66
$GPGGA,190913.000,5926.2835,N,02444.7415,E,1,6,1.33,48.6,M,19.8,M,,*67
$GPGGA,190914.000,5926.2835,N,02444.7415,E,1,6,1.33,48.5,M,19.8,M,,*63
$GPGGA,190915.000,5926.2836,N,02444.7416,E,1,6,1.33,48.5,M,19.8,M,,*62
$GPGGA,190916.000,5926.2836,N,02444.7416,E,1,6,1.33,48.4,M,19.8,M,,*60
$GPGGA,190917.000,5926.2836,N,02444.7417,E,1,6,1.33,48.3,M,19.8,M,,*67
$GPGGA,190918.000,5926.2837,N,02444.7417,E,1,6,1.33,48.2,M,19.8,M,,*68
$GPGGA,190919.000,5926.2838,N,02444.7418,E,1,6,1.33,48.1,M,19.8,M,,*6A
$GPGGA,190920.000,5926.2839,N,02444.7418,E,1,6,1.33,48.0,M,19.8,M,,*60
$GPGGA,190921.000,5926.2840,N,02444.7419,E,1,6,1.33,47.8,M,19.8,M,,*69
$GPGGA,190922.000,5926.2841,N,02444.7419,E,1,6,1.33,47.7,M,19.8,M,,*64
$GPGGA,190923.000,5926.2842,N,02444.7420,E,1,6,1.33,47.5,M,19.8,M,,*6E
$GPGGA,190924.000,5926.2843,N,02444.7420,E,1,6,1.33,47.4,M,19.8,M,,*69
$GPGGA,190925.000,5926.2845,N,02444.7420,E,1,6,1.33,47.3,M,19.8,M,,*69
$GPGGA,190926.000,5926.2846,N,02444.7420,E,1,6,1.33,47.1,M,19.8,M,,*6B
$GPGGA,190927.000,5926.2847,N,02444.7420,E,1,6,1.33,47.0,M,19.8,M,,*6A
$GPGGA,190928.000,5926.2848,N,02444.7420,E,1,6,1.33,46.9,M,19.8,M,,*62
$GPGGA,190929.000,5926.2848,N,02444.7420,E,1,6,1.33,46.8,M,19.8,M,,*62
$GPGGA,190930.000,5926.2849,N,02444.7419,E,1,6,1.33,46.6,M,19.8,M,,*6F
$GPGGA,190931.000,5926.2849,N,02444.7419,E,1,6,1.33,46.5,M,19.8,M,,*6D
$GPGGA,190932.000,5926.2849,N,02444.7419,E,1,6,1.33,46.5,M,19.8,M,,*6E
$GPGGA,190933.000,5926.2850,N,02444.7418,E,1,6,1.33,46.4,M,19.8,M,,*67
$GPGGA,190934.000,5926.2850,N,02444.7418,E,1,6,1.33,46.3,M,19.8,M,,*67
$GPGGA,190935.000,5926.2850,N,02444.7418,E,1,6,1.33,46.3,M,19.8,M,,*66
$GPGGA,190936.000,5926.2850,N,02444.7418,E,1,6,1.33,46.2,M,19.8,M,,*64
$GPGGA,190937.000,5926.2850,N,02444.7418,E,1,6,1.33,46.2,M,19.8,M,,*65
$GPGGA,190938.000,5926.2850,N,02444.7418,E,1,6,1.33,46.1,M,19.8,M,,*69
$GPGGA,190939.000,5926.2851,N,02444.7417,E,1,6,1.33,46.1,M,19.8,M,,*66
$GPGGA,190940.000,5926.2851,N,02444.7417,E,1,6,1.33,46.1,M,19.8,M,,*68
$GPGGA,190941.000,5926.2851,N,02444.7416,E,1,6,1.33,46.0,M,19.8,M,,*69
$GPGGA,190942.000,5926.2851,N,02444.7415,E,1,6,1.33,46.0,M,19.8,M,,*69
$GPGGA,190943.000,5926.2851,N,02444.7414,E,1,6,1.33,46.0,M,19.8,M,,*69
$GPGGA,190944.000,5926.2851,N,02444.7413,E,1,6,1.33,46.0,M,19.8,M,,*69
$GPGGA,190945.000,5926.2851,N,02444.7412,E,1,6,1.33,45.9,M,19.8,M,,*63
$GPGGA,190946.000,5926.2851,N,02444.7411,E,1,6,1.33,45.9,M,19.8,M,,*63
$GPGGA,190947.000,5926.2851,N,02444.7410,E,1,6,1.33,46.0,M,19.8,M,,*69
$GPGGA,190948.000,5926.2851,N,02444.7409,E,1,6,1.33,46.0,M,19.8,M,,*6E
$GPGGA,190949.000,5926.2851,N,02444.7408,E,1,6,1.33,46.0,M,19.8,M,,*6E
$GPGGA,190950.000,5926.2851,N,02444.7407,E,1,6,1.33,46.0,M,19.8,M,,*69
$GPGGA,190951.000,5926.2851,N,02444.7406,E,1,6,1.33,46.0,M,19.8,M,,*69
$GPGGA,190952.000,5926.2851,N,02444.7405,E,1,6,1.33,46.0,M,19.8,M,,*69
$GPGGA,190953.000,5926.2851,N,02444.7403,E,1,6,1.33,46.0,M,19.8,M,,*6E
$GPGGA,190954.000,5926.2851,N,02444.7402,E,1,6,1.33,46.1,M,19.8,M,,*69
$GPGGA,190955.000,5926.2850,N,02444.7401,E,1,6,1.33,46.1,M,19.8,M,,*6A
$GPGGA,190956.000,5926.2850,N,02444.7400,E,1,6,1.33,46.1,M,19.8,M,,*68
$GPGGA,190957.000,5926.2850,N,02444.7398,E,1,6,1.33,46.1,M,19.8,M,,*6F
$GPGGA,190958.000,5926.2850,N,02444.7397,E,1,6,1.33,46.1,M,19.8,M,,*6F
$GPGGA,190959.000,5926.2850,N,02444.7395,E,1,6,1.33,46.2,M,19.8,M,,*6F
$GPGGA,191000.000,5926.2850,N,02444.7394,E,1,6,1.33,46.2,M,19.8,M,,*6A
$GPGGA,191001.000,5926.2850,N,02444.7392,E,1,6,1.33,46.2,M,19.8,M,,*6D
$GPGGA,191002.000,5926.2850,N,02444.7391,E,1,6,1.33,46.2,M,19.8,M,,*6D
$GPGGA,191003.000,5926.2850,N,02444.7389,E,1,6,1.33,46.2,M,19.8,M,,*65
$GPGGA,191004.000,5926.2850,N,02444.7387,E,1,6,1.33,46.2,M,19.8,M,,*6C
$GPGGA,191005.000,5926.2850,N,02444.7385,E,1,6,1.33,46.2,M,19.8,M,,*6F
$GPGGA,191006.000,5926.2850,N,02444.7383,E,1,6,1.33,46.2,M,19.8,M,,*6A
$GPGGA,191007.000,5926.2850,N,02444.7381,E,1,6,1.33,46.2,M,19.8,M,,*69
$GPGGA,191008.000,5926.2850,N,02444.7379,E,1,6,1.33,46.1,M,19.8,M,,*62
$GPGGA,191009.000,5926.2850,N,02444.7376,E,1,6,1.33,46.1,M,19.8,M,,*6C
$GPGGA,191010.000,5926.2850,N,02444.7374,E,1,6,1.33,46.1,M,19.8,M,,*66
$GPGGA,191011.000,5926.2849,N,02444.7372,E,1,6,1.33,46.1,M,19.8,M,,*69
$GPGGA,191012.000,5926.2849,N,02444.7369,E,1,6,1.33,46.0,M,19.8,M,,*61
$GPGGA,191013.000,5926.2849,N,02444.7367,E,1,6,1.33,46.0,M,19.8,M,,*6E
$GPGGA,191014.000,5926.2849,N,02444.7365,E,1,6,1.33,45.9,M,19.8,M,,*61
$GPGGA,191015.000,5926.2849,N,02444.7363,E,1,6,1.33,45.9,M,19.8,M,,*66
$GPGGA,191016.000,5926.2849,N,02444.7361,E,1,6,1.33,45.8,M,19.8,M,,*66
$GPGGA,191017.000,5926.2849,N,02444.7359,E,1,6,1.33,45.8,M,19.8,M,,*6C
$GPGGA,191018.000,5926.2849,N,02444.7357,E,1,6,1.33,45.7,M,19.8,M,,*62
$GPGGA,191019.000,5926.2849,N,02444.7355,E,1,6,1.33,45.7,M,19.8,M,,*61
$GPGGA,191020.000,5926.2849,N,02444.7353,E,1,6,1.33,45.6,M,19.8,M,,*6C
$GPGGA,191021.000,5926.2849,N,02444.7351,E,1,6,1.33,45.6,M,19.8,M,,*6F
$GPGGA,191022.000,5926.2849,N,02444.7349,E,1,6,1.33,45.6,M,19.8,M,,*65
$GPGGA,191023.000,5926.2848,N,02444.7346,E,1,6,1.33,45.5,M,19.8,M,,*69
$GPGGA,191024.000,5926.2848,N,02444.7343,E,1,6,1.33,45.5,M,19.8,M,,*6B
$GPGGA,191025.000,5926.2848,N,02444.7341,E,1,6,1.33,45.5,M,19.8,M,,*68
$GPGGA,191026.000,5926.2848,N,02444.7338,E,1,6,1.33,45.5,M,19.8,M,,*65
$GPGGA,191027.000,5926.2847,N,02444.7335,E,1,6,1.33,45.4,M,19.8,M,,*67
$GPGGA,191028.000,5926.2847,N,02444.7333,E,1,6,1.33,45.4,M,19.8,M,,*6E
$GPGGA,191029.000,5926.2847,N,02444.7330,E,1,6,1.33,45.4,M,19.8,M,,*6C
$GPGGA,191030.000,5926.2847,N,02444.7328,E,1,6,1.33,45.4,M,19.8,M,,*6D
$GPGGA,191031.000,5926.2846,N,02444.7324,E,1,6,1.33,45.4,M,19.8,M,,*61
$GPGGA,191032.000,5926.2846,N,02444.7317,E,1,6,1.33,45.6,M,19.8,M,,*60
$GPGGA,191033.000,5926.2846,N,02444.7307,E,1,6,1.33,45.6,M,19.8,M,,*60
$GPGGA,191034.000,5926.2845,N,02444.7301,E,1,6,1.33,45.4,M,19.8,M,,*60
$GPGGA,191035.000,5926.2847,N,02444.7303,E,1,6,1.33,45.4,M,19.8,M,,*61
$GPGGA,191036.000,5926.2849,N,02444.7302,E,1,6,1.33,45.5,M,19.8,M,,*6C
$GPGGA,191037.000,5926.2850,N,02444.7295,E,1,6,1.33,45.5,M,19.8,M,,*6A
$GPGGA,191038.000,5926.2850,N,02444.7291,E,1,6,1.33,45.2,M,19.8,M,,*66
$GPGGA,191039.000,5926.2850,N,02444.7289,E,1,6,1.33,45.2,M,19.8,M,,*6E
$GPGGA,191040.000,5926.2850,N,02444.7286,E,1,6,1.33,45.2,M,19.8,M,,*6F
$GPGGA,191041.000,5926.2849,N,02444.7283,E,1,6,1.33,45.2,M,19.8,M,,*63
$GPGGA,191042.000,5926.2849,N,02444.7281,E,1,6,1.33,45.2,M,19.8,M,,*62
$GPGGA,191043.000,5926.2849,N,02444.7279,E,1,6,1.33,45.2,M,19.8,M,,*64
$GPGGA,191044.000,5926.2849,N,02444.7277,E,1,6,1.33,45.2,M,19.8,M,,*6D
$GPGGA,191045.000,5926.2849,N,02444.7275,E,1,6,1.33,45.2,M,19.8,M,,*6E
$GPGGA,191046.000,5926.2849,N,02444.7273,E,1,6,1.33,45.2,M,19.8,M,,*6B
$GPGGA,191047.000,5926.2849,N,02444.7272,E,1,6,1.33,45.2,M,19.8,M,,*6B
$GPGGA,191048.000,5926.2848,N,02444.7270,E,1,6,1.33,45.2,M,19.8,M,,*67
$GPGGA,191049.000,5926.2848,N,02444.7269,E,1,6,1.33,45.2,M,19.8,M,,*6E
$GPGGA,191050.000,5926.2848,N,02444.7268,E,1,6,1.33,45.2,M,19.8,M,,*67
$GPGGA,191051.000,5926.2848,N,02444.7267,E,1,6,1.33,45.2,M,19.8,M,,*69
$GPGGA,191052.000,5926.2848,N,02444.7267,E,1,5,1.44,45.3,M,19.8,M,,*68
$GPGGA,191053.000,5926.2848,N,02444.7266,E,1,5,1.45,45.3,M,19.8,M,,*69
$GPGGA,191054.000,5926.2848,N,02444.7266,E,1,6,1.33,45.3,M,19.8,M,,*6C
$GPGGA,191055.000,5926.2848,N,02444.7266,E,1,6,1.33,45.3,M,19.8,M,,*6D
$GPGGA,191056.000,5926.2848,N,02444.7265,E,1,6,1.33,45.3,M,19.8,M,,*6D
$GPGGA,191057.000,5926.2849,N,02444.7265,E,1,6,1.33,45.3,M,19.8,M,,*6D
$GPGGA,191058.000,5926.2849,N,02444.7265,E,1,6,1.33,45.3,M,19.8,M,,*62
$GPGGA,191059.000,5926.2849,N,02444.7264,E,1,6,1.33,45.3,M,19.8,M,,*62
$GPGGA,191100.000,5926.2849,N,02444.7264,E,1,6,1.33,45.2,M,19.8,M,,*6E
$GPGGA,191101.000,5926.2849,N,02444.7263,E,1,6,1.33,45.2,M,19.8,M,,*68
$GPGGA,191102.000,5926.2849,N,02444.7264,E,1,6,1.33,45.2,M,19.8,M,,*6C
$GPGGA,191103.000,5926.2849,N,02444.7264,E,1,6,1.33,45.1,M,19.8,M,,*6E
$GPGGA,191104.000,5926.2849,N,02444.7266,E,1,6,1.33,45.0,M,19.8,M,,*6A
$GPGGA,191105.000,5926.2850,N,02444.7267,E,1,6,1.33,44.9,M,19.8,M,,*6A
$GPGGA,191106.000,5926.2850,N,02444.7269,E,1,6,1.33,44.8,M,19.8,M,,*66
$GPGGA,191107.000,5926.2850,N,02444.7271,E,1,6,1.33,44.7,M,19.8,M,,*61
$GPGGA,191108.000,5926.2851,N,02444.7272,E,1,6,1.33,44.5,M,19.8,M,,*6E
$GPGGA,191109.000,5926.2851,N,02444.7274,E,1,6,1.33,44.4,M,19.8,M,,*68
$GPGGA,191110.000,5926.2851,N,02444.7275,E,1,6,1.33,44.2,M,19.8,M,,*67
$GPGGA,191111.000,5926.2851,N,02444.7276,E,1,6,1.33,44.0,M,19.8,M,,*67
$GPGGA,191112.000,5926.2852,N,02444.7277,E,1,6,1.33,43.9,M,19.8,M,,*68
$GPGGA,191113.000,5926.2852,N,02444.7278,E,1,6,1.33,43.7,M,19.8,M,,*68
$GPGGA,191114.000,5926.2852,N,02444.7279,E,1,6,1.33,43.5,M,19.8,M,,*6C
$GPGGA,191115.000,5926.2853,N,02444.7281,E,1,6,1.33,43.4,M,19.8,M,,*6A
$GPGGA,191116.000,5926.2853,N,02444.7282,E,1,6,1.33,43.2,M,19.8,M,,*6C
$GPGGA,191117.000,5926.2853,N,02444.7284,E,1,6,1.33,43.0,M,19.8,M,,*69
$GPGGA,191118.000,5926.2854,N,02444.7285,E,1,6,1.33,42.9,M,19.8,M,,*68
$GPGGA,191119.000,5926.2854,N,02444.7286,E,1,6,1.33,42.7,M,19.8,M,,*64
$GPGGA,191120.000,5926.2854,N,02444.7287,E,1,6,1.33,42.5,M,19.8,M,,*6D
$GPGGA,191121.000,5926.2855,N,02444.7288,E,1,6,1.33,42.4,M,19.8,M,,*63
$GPGGA,191122.000,5926.2855,N,02444.7289,E,1,6,1.33,42.2,M,19.8,M,,*67
$GPGGA,191123.000,5926.2855,N,02444.7290,E,1,6,1.33,42.0,M,19.8,M,,*6C
$GPGGA,191124.000,5926.2856,N,02444.7290,E,1,6,1.33,41.8,M,19.8,M,,*63
$GPGGA,191125.000,5926.2856,N,02444.7291,E,1,6,1.33,41.7,M,19.8,M,,*6C
$GPGGA,191126.000,5926.2856,N,02444.7291,E,1,6,1.33,41.5,M,19.8,M,,*6D
$GPGGA,191127.000,5926.2856,N,02444.7291,E,1,6,1.33,41.3,M,19.8,M,,*6A
$GPGGA,191128.000,5926.2856,N,02444.7291,E,1,6,1.33,41.2,M,19.8,M,,*64
$GPGGA,191129.000,5926.2857,N,02444.7291,E,1,6,1.33,41.0,M,19.8,M,,*66
$GPGGA,191130.000,5926.2857,N,02444.7292,E,1,6,1.33,40.8,M,19.8,M,,*64
$GPGGA,191131.000,5926.2857,N,02444.7292,E,1,6,1.33,40.7,M,19.8,M,,*6A
$GPGGA,191132.000,5926.2857,N,02444.7293,E,1,6,1.33,40.5,M,19.8,M,,*6A
$GPGGA,191133.000,5926.2858,N,02444.7293,E,1,6,1.33,40.4,M,19.8,M,,*65
$GPGGA,191134.000,5926.2858,N,02444.7294,E,1,6,1.33,40.2,M,19.8,M,,*63
$GPGGA,191135.000,5926.2858,N,02444.7294,E,1,6,1.33,40.1,M,19.8,M,,*61
$GPGGA,191136.000,5926.2859,N,02444.7295,E,1,6,1.33,39.9,M,19.8,M,,*64
$GPGGA,191137.000,5926.2859,N,02444.7296,E,1,6,1.33,39.8,M,19.8,M,,*67
$GPGGA,191138.000,5926.2859,N,02444.7296,E,1,6,1.33,39.6,M,19.8,M,,*66
$GPGGA,191139.000,5926.2860,N,02444.7297,E,1,6,1.33,39.5,M,19.8,M,,*6F
$GPGGA,191140.000,5926.2860,N,02444.7297,E,1,6,1.33,39.4,M,19.8,M,,*60
$GPGGA,191141.000,5926.2861,N,02444.7298,E,1,6,1.33,39.2,M,19.8,M,,*69
$GPGGA,191142.000,5926.2861,N,02444.7298,E,1,6,1.33,39.1,M,19.8,M,,*69
$GPGGA,191143.000,5926.2862,N,02444.7299,E,1,6,1.33,39.0,M,19.8,M,,*6B
$GPGGA,191144.000,5926.2863,N,02444.7300,E,1,6,1.33,38.8,M,19.8,M,,*65
$GPGGA,191145.000,5926.2864,N,02444.7301,E,1,6,1.33,38.7,M,19.8,M,,*6D
$GPGGA,191146.000,5926.2865,N,02444.7301,E,1,6,1.33,38.6,M,19.8,M,,*6E
$GPGGA,191147.000,5926.2866,N,02444.7302,E,1,6,1.33,38.5,M,19.8,M,,*6C
$GPGGA,191148.000,5926.2867,N,02444.7303,E,1,6,1.33,38.4,M,19.8,M,,*62
$GPGGA,191149.000,5926.2869,N,02444.7304,E,1,6,1.33,38.3,M,19.8,M,,*6D
$GPGGA,191150.000,5926.2870,N,02444.7305,E,1,6,1.33,38.2,M,19.8,M,,*6D
$GPGGA,191151.000,5926.2872,N,02444.7306,E,1,6,1.22,38.1,M,19.8,M,,*6E
$GPGGA,191152.000,5926.2874,N,02444.7309,E,1,6,1.22,38.2,M,19.8,M,,*67
$GPGGA,191153.000,5926.2876,N,02444.7317,E,1,6,1.22,38.7,M,19.8,M,,*6E
$GPGGA,191154.000,5926.2879,N,02444.7324,E,1,6,1.22,39.1,M,19.8,M,,*61
$GPGGA,191155.000,5926.2882,N,02444.7331,E,1,6,1.22,39.6,M,19.8,M,,*67
$GPGGA,191156.000,5926.2884,N,02444.7340,E,1,6,1.22,40.1,M,19.8,M,,*6D
$GPGGA,191157.000,5926.2885,N,02444.7348,E,1,6,1.22,40.2,M,19.8,M,,*66
$GPGGA,191158.000,5926.2886,N,02444.7354,E,1,6,1.22,40.3,M,19.8,M,,*66
$GPGGA,191159.000,5926.2887,N,02444.7358,E,1,6,1.22,40.4,M,19.8,M,,*6D
$GPGGA,191200.000,5926.2886,N,02444.7359,E,1,6,1.22,40.4,M,19.8,M,,*62
$GPGGA,191201.000,5926.2885,N,02444.7366,E,1,6,1.22,40.6,M,19.8,M,,*6E
$GPGGA,191202.000,5926.2889,N,02444.7373,E,1,6,1.22,40.9,M,19.8,M,,*6A
$GPGGA,191203.000,5926.2890,N,02444.7375,E,1,6,1.22,40.9,M,19.8,M,,*65
$GPGGA,191204.000,5926.2891,N,02444.7378,E,1,6,1.22,40.8,M,19.8,M,,*6F
$GPGGA,191205.000,5926.2891,N,02444.7380,E,1,6,1.22,40.8,M,19.8,M,,*69
$GPGGA,191206.000,5926.2892,N,02444.7382,E,1,6,1.22,40.7,M,19.8,M,,*64
$GPGGA,191207.000,5926.2892,N,02444.7384,E,1,6,1.22,40.7,M,19.8,M,,*63
$GPGGA,191208.000,5926.2893,N,02444.7385,E,1,6,1.22,40.6,M,19.8,M,,*6D
$GPGGA,191209.000,5926.2894,N,02444.7387,E,1,6,1.22,40.6,M,19.8,M,,*69
$GPGGA,191210.000,5926.2894,N,02444.7388,E,1,6,1.22,40.5,M,19.8,M,,*6D
$GPGGA,191211.000,5926.2895,N,02444.7389,E,1,6,1.22,40.5,M,19.8,M,,*6C
$GPGGA,191212.000,5926.2895,N,02444.7391,E,1,6,1.22,40.4,M,19.8,M,,*67
$GPGGA,191213.000,5926.2896,N,02444.7392,E,1,6,1.33,40.4,M,19.8,M,,*66
$GPGGA,191214.000,5926.2896,N,02444.7394,E,1,6,1.33,40.3,M,19.8,M,,*60
$GPGGA,191215.000,5926.2896,N,02444.7395,E,1,6,1.33,40.3,M,19.8,M,,*60
$GPGGA,191216.000,5926.2897,N,02444.7396,E,1,6,1.33,40.2,M,19.8,M,,*60
$GPGGA,191217.000,5926.2898,N,02444.7396,E,1,6,1.22,40.2,M,19.8,M,,*6E
$GPGGA,191218.000,5926.2898,N,02444.7397,E,1,6,1.33,40.1,M,19.8,M,,*63
$GPGGA,191219.000,5926.2899,N,02444.7398,E,1,6,1.33,40.1,M,19.8,M,,*6C
$GPGGA,191220.000,5926.2900,N,02444.7398,E,1,6,1.33,40.0,M,19.8,M,,*66
$GPGGA,191221.000,5926.2901,N,02444.7398,E,1,6,1.33,40.0,M,19.8,M,,*66
$GPGGA,191222.000,5926.2901,N,02444.7399,E,1,6,1.33,39.9,M,19.8,M,,*63
$GPGGA,191223.000,5926.2902,N,02444.7399,E,1,6,1.33,39.9,M,19.8,M,,*61
$GPGGA,191224.000,5926.2903,N,02444.7399,E,1,6,1.33,39.8,M,19.8,M,,*66
$GPGGA,191225.000,5926.2903,N,02444.7399,E,1,6,1.33,39.8,M,19.8,M,,*67
$GPGGA,191226.000,5926.2904,N,02444.7398,E,1,6,1.33,39.7,M,19.8,M,,*6D
$GPGGA,191227.000,5926.2904,N,02444.7398,E,1,6,1.33,39.6,M,19.8,M,,*6D
$GPGGA,191228.000,5926.2904,N,02444.7398,E,1,6,1.33,39.6,M,19.8,M,,*62
$GPGGA,191229.000,5926.2904,N,02444.7397,E,1,6,1.33,39.5,M,19.8,M,,*6F
$GPGGA,191230.000,5926.2903,N,02444.7396,E,1,6,1.33,39.4,M,19.8,M,,*60
$GPGGA,191231.000,5926.2902,N,02444.7395,E,1,6,1.33,39.4,M,19.8,M,,*63
$GPGGA,191232.000,5926.2901,N,02444.7393,E,1,6,1.33,39.3,M,19.8,M,,*62
$GPGGA,191233.000,5926.2900,N,02444.7391,E,1,6,1.33,39.2,M,19.8,M,,*61
$GPGGA,191234.000,5926.2899,N,02444.7389,E,1,6,1.22,39.2,M,19.8,M,,*6E
$GPGGA,191235.000,5926.2898,N,02444.7386,E,1,6,1.22,39.1,M,19.8,M,,*62
$GPGGA,191236.000,5926.2898,N,02444.7383,E,1,6,1.22,39.0,M,19.8,M,,*65
$GPGGA,191237.000,5926.2896,N,02444.7378,E,1,6,1.33,38.8,M,19.8,M,,*67
$GPGGA,191238.000,5926.2896,N,02444.7377,E,1,6,1.33,38.5,M,19.8,M,,*6A
$GPGGA,191239.000,5926.2900,N,02444.7375,E,1,6,1.33,38.5,M,19.8,M,,*67
$GPGGA,191240.000,5926.2902,N,02444.7375,E,1,6,1.22,38.4,M,19.8,M,,*6A
$GPGGA,191241.000,5926.2902,N,02444.7374,E,1,6,1.22,38.3,M,19.8,M,,*6D
$GPGGA,191242.000,5926.2902,N,02444.7372,E,1,6,1.22,38.2,M,19.8,M,,*69
$GPGGA,191243.000,5926.2901,N,02444.7371,E,1,6,1.22,38.2,M,19.8,M,,*68
$GPGGA,191244.000,5926.2901,N,02444.7370,E,1,6,1.33,38.1,M,19.8,M,,*6D
$GPGGA,191245.000,5926.2901,N,02444.7368,E,1,6,1.33,38.0,M,19.8,M,,*64
$GPGGA,191246.000,5926.2900,N,02444.7367,E,1,6,1.33,38.0,M,19.8,M,,*69
$GPGGA,191247.000,5926.2899,N,02444.7366,E,1,6,1.33,37.9,M,19.8,M,,*6E
$GPGGA,191248.000,5926.2898,N,02444.7365,E,1,6,1.33,37.8,M,19.8,M,,*62
$GPGGA,191249.000,5926.2897,N,02444.7363,E,1,6,1.33,37.7,M,19.8,M,,*65
$GPGGA,191250.000,5926.2897,N,02444.7361,E,1,6,1.33,37.7,M,19.8,M,,*6F
$GPGGA,191251.000,5926.2896,N,02444.7360,E,1,6,1.33,37.6,M,19.8,M,,*6F
$GPGGA,191252.000,5926.2895,N,02444.7359,E,1,6,1.33,37.5,M,19.8,M,,*66
$GPGGA,191253.000,5926.2895,N,02444.7358,E,1,6,1.33,37.5,M,19.8,M,,*66
$GPGGA,191254.000,5926.2895,N,02444.7358,E,1,6,1.33,37.4,M,19.8,M,,*60
$GPGGA,191255.000,5926.2894,N,02444.7357,E,1,6,1.33,37.3,M,19.8,M,,*68
$GPGGA,191256.000,5926.2894,N,02444.7357,E,1,6,1.33,37.3,M,19.8,M,,*6B
$GPGGA,191257.000,5926.2894,N,02444.7357,E,1,6,1.33,37.2,M,19.8,M,,*6B
$GPGGA,191258.000,5926.2893,N,02444.7357,E,1,6,1.33,37.1,M,19.8,M,,*60
$GPGGA,191259.000,5926.2893,N,02444.7356,E,1,6,1.33,37.1,M,19.8,M,,*60
$GPGGA,191300.000,5926.2892,N,02444.7356,E,1,6,1.33,37.0,M,19.8,M,,*6D
$GPGGA,191301.000,5926.2892,N,02444.7356,E,1,6,1.33,36.9,M,19.8,M,,*64
$GPGGA,191302.000,5926.2891,N,02444.7355,E,1,6,1.33,36.9,M,19.8,M,,*67
$GPGGA,191303.000,5926.2891,N,02444.7355,E,1,6,1.33,36.8,M,19.8,M,,*67
$GPGGA,191304.000,5926.2890,N,02444.7354,E,1,6,1.33,36.7,M,19.8,M,,*6F
$GPGGA,191305.000,5926.2890,N,02444.7354,E,1,6,1.33,36.7,M,19.8,M,,*6E
$GPGGA,191306.000,5926.2889,N,02444.7353,E,1,6,1.33,36.6,M,19.8,M,,*63
$GPGGA,191307.000,5926.2888,N,02444.7352,E,1,6,1.33,36.5,M,19.8,M,,*61
$GPGGA,191308.000,5926.2887,N,02444.7351,E,1,6,1.33,36.5,M,19.8,M,,*62
$GPGGA,191309.000,5926.2886,N,02444.7349,E,1,6,1.33,36.4,M,19.8,M,,*6A
$GPGGA,191310.000,5926.2885,N,02444.7348,E,1,6,1.33,36.3,M,19.8,M,,*67
$GPGGA,191311.000,5926.2884,N,02444.7346,E,1,6,1.33,36.3,M,19.8,M,,*69
$GPGGA,191312.000,5926.2883,N,02444.7344,E,1,6,1.33,36.2,M,19.8,M,,*6E
$GPGGA,191313.000,5926.2882,N,02444.7342,E,1,6,1.33,36.1,M,19.8,M,,*6B
$GPGGA,191314.000,5926.2881,N,02444.7340,E,1,6,1.33,36.1,M,19.8,M,,*6D
$GPGGA,191315.000,5926.2880,N,02444.7339,E,1,6,1.33,36.0,M,19.8,M,,*62
$GPGGA,191316.000,5926.2879,N,02444.7337,E,1,6,1.33,35.9,M,19.8,M,,*63
$GPGGA,191317.000,5926.2878,N,02444.7335,E,1,6,1.33,35.9,M,19.8,M,,*61
$GPGGA,191318.000,5926.2877,N,02444.7333,E,1,6,1.33,35.8,M,19.8,M,,*66
$GPGGA,191319.000,5926.2875,N,02444.7330,E,1,6,1.33,35.7,M,19.8,M,,*69
$GPGGA,191320.000,5926.2874,N,02444.7325,E,1,6,1.33,35.7,M,19.8,M,,*66
$GPGGA,191321.000,5926.2874,N,02444.7321,E,1,6,1.33,35.6,M,19.8,M,,*62
$GPGGA,191322.000,5926.2873,N,02444.7319,E,1,6,1.33,35.4,M,19.8,M,,*6F
$GPGGA,191323.000,5926.2873,N,02444.7319,E,1,6,1.33,35.2,M,19.8,M,,*68
$GPGGA,191324.000,5926.2873,N,02444.7318,E,1,6,1.33,35.2,M,19.8,M,,*6E
$GPGGA,191325.000,5926.2872,N,02444.7317,E,1,6,1.33,35.1,M,19.8,M,,*62
$GPGGA,191326.000,5926.2872,N,02444.7317,E,1,6,1.33,35.1,M,19.8,M,,*61
$GPGGA,191327.000,5926.2872,N,02444.7317,E,1,6,1.22,35.0,M,19.8,M,,*61
$GPGGA,191328.000,5926.2872,N,02444.7317,E,1,6,1.33,34.9,M,19.8,M,,*66
$GPGGA,191329.000,5926.2872,N,02444.7317,E,1,6,1.22,34.9,M,19.8,M,,*67
$GPGGA,191330.000,5926.2872,N,02444.7317,E,1,6,1.22,34.8,M,19.8,M,,*6E
$GPGGA,191331.000,5926.2872,N,02444.7318,E,1,6,1.22,34.7,M,19.8,M,,*6F
$GPGGA,191332.000,5926.2873,N,02444.7318,E,1,6,1.22,34.7,M,19.8,M,,*6D
$GPGGA,191333.000,5926.2873,N,02444.7319,E,1,6,1.22,34.6,M,19.8,M,,*6C
$GPGGA,191334.000,5926.2873,N,02444.7319,E,1,6,1.22,34.5,M,19.8,M,,*68
$GPGGA,191335.000,5926.2874,N,02444.7320,E,1,6,1.22,34.5,M,19.8,M,,*64
$GPGGA,191336.000,5926.2874,N,02444.7320,E,1,6,1.22,34.4,M,19.8,M,,*66
$GPGGA,191337.000,5926.2875,N,02444.7321,E,1,6,1.22,34.4,M,19.8,M,,*67
$GPGGA,191338.000,5926.2875,N,02444.7321,E,1,6,1.22,34.3,M,19.8,M,,*6F
$GPGGA,191339.000,5926.2875,N,02444.7322,E,1,6,1.22,34.3,M,19.8,M,,*6D
$GPGGA,191340.000,5926.2876,N,02444.7322,E,1,6,1.22,34.2,M,19.8,M,,*61
$GPGGA,191341.000,5926.2876,N,02444.7322,E,1,6,1.22,34.2,M,19.8,M,,*60
$GPGGA,191342.000,5926.2877,N,02444.7323,E,1,6,1.22,34.1,M,19.8,M,,*60
$GPGGA,191343.000,5926.2877,N,02444.7323,E,1,6,1.22,34.0,M,19.8,M,,*60
$GPGGA,191344.000,5926.2877,N,02444.7323,E,1,6,1.22,34.0,M,19.8,M,,*67
$GPGGA,191345.000,5926.2878,N,02444.7323,E,1,6,1.22,33.9,M,19.8,M,,*67
$GPGGA,191346.000,5926.2878,N,02444.7324,E,1,6,1.22,33.9,M,19.8,M,,*63
$GPGGA,191347.000,5926.2879,N,02444.7324,E,1,6,1.22,33.8,M,19.8,M,,*62
$GPGGA,191348.000,5926.2880,N,02444.7325,E,1,6,1.22,33.8,M,19.8,M,,*6A
$GPGGA,191349.000,5926.2880,N,02444.7325,E,1,6,1.22,33.7,M,19.8,M,,*64
$GPGGA,191350.000,5926.2881,N,02444.7326,E,1,6,1.22,33.7,M,19.8,M,,*6E
$GPGGA,191351.000,5926.2882,N,02444.7326,E,1,6,1.22,33.6,M,19.8,M,,*6D
$GPGGA,191352.000,5926.2883,N,02444.7327,E,1,6,1.22,33.6,M,19.8,M,,*6E
$GPGGA,191353.000,5926.2883,N,02444.7327,E,1,6,1.22,33.5,M,19.8,M,,*6C
$GPGGA,191354.000,5926.2884,N,02444.7328,E,1,6,1.22,33.5,M,19.8,M,,*63
$GPGGA,191355.000,5926.2885,N,02444.7328,E,1,6,1.22,33.4,M,19.8,M,,*62
$GPGGA,191356.000,5926.2885,N,02444.7329,E,1,6,1.22,33.4,M,19.8,M,,*60
$GPGGA,191357.000,5926.2886,N,02444.7329,E,1,6,1.22,33.3,M,19.8,M,,*65
$GPGGA,191358.000,5926.2886,N,02444.7330,E,1,6,1.22,33.3,M,19.8,M,,*62
$GPGGA,191359.000,5926.2887,N,02444.7331,E,1,7,1.22,33.2,M,19.8,M,,*63
$GPGGA,191400.000,5926.2887,N,02444.7332,E,1,7,1.22,33.2,M,19.8,M,,*6B
$GPGGA,191401.000,5926.2887,N,02444.7332,E,1,7,1.22,33.1,M,19.8,M,,*69
$GPGGA,191402.000,5926.2887,N,02444.7333,E,1,7,1.22,33.1,M,19.8,M,,*6B
$GPGGA,191403.000,5926.2887,N,02444.7333,E,1,7,1.22,33.0,M,19.8,M,,*6B
$GPGGA,191404.000,5926.2887,N,02444.7333,E,1,7,1.22,33.0,M,19.8,M,,*6C
$GPGGA,191405.000,5926.2887,N,02444.7333,E,1,7,1.22,32.9,M,19.8,M,,*65
$GPGGA,191406.000,5926.2887,N,02444.7333,E,1,7,1.22,32.9,M,19.8,M,,*66
$GPGGA,191407.000,5926.2886,N,02444.7333,E,1,7,1.22,32.8,M,19.8,M,,*67
$GPGGA,191408.000,5926.2886,N,02444.7334,E,1,7,1.22,32.8,M,19.8,M,,*6F
$GPGGA,191409.000,5926.2886,N,02444.7334,E,1,7,1.22,32.7,M,19.8,M,,*61
$GPGGA,191410.000,5926.2886,N,02444.7335,E,1,7,1.22,32.7,M,19.8,M,,*68
$GPGGA,191411.000,5926.2885,N,02444.7336,E,1,7,1.22,32.6,M,19.8,M,,*68
$GPGGA,191412.000,5926.2885,N,02444.7336,E,1,7,1.22,32.6,M,19.8,M,,*6B
$GPGGA,191413.000,5926.2885,N,02444.7337,E,1,7,1.22,32.5,M,19.8,M,,*68
$GPGGA,191414.000,5926.2885,N,02444.7337,E,1,7,1.22,32.5,M,19.8,M,,*6F
$GPGGA,191415.000,5926.2885,N,02444.7338,E,1,7,1.22,32.4,M,19.8,M,,*60
$GPGGA,191416.000,5926.2885,N,02444.7338,E,1,7,1.22,32.4,M,19.8,M,,*63
$GPGGA,191417.000,5926.2885,N,02444.7338,E,1,7,1.22,32.3,M,19.8,M,,*65
$GPGGA,191418.000,5926.2884,N,02444.7338,E,1,7,1.04,32.3,M,19.8,M,,*6F
$GPGGA,191419.000,5926.2884,N,02444.7338,E,1,7,1.04,32.2,M,19.8,M,,*6F
$GPGGA,191420.000,5926.2884,N,02444.7338,E,1,7,1.04,32.2,M,19.8,M,,*65
$GPGGA,191421.000,5926.2884,N,02444.7337,E,1,7,1.04,32.1,M,19.8,M,,*68
$GPGGA,191422.000,5926.2884,N,02444.7337,E,1,7,1.04,32.1,M,19.8,M,,*6B
$GPGGA,191423.000,5926.2884,N,02444.7336,E,1,7,1.04,32.0,M,19.8,M,,*6A
$GPGGA,191424.000,5926.2884,N,02444.7335,E,1,7,1.04,32.0,M,19.8,M,,*6E
$GPGGA,191425.000,5926.2885,N,02444.7334,E,1,7,1.04,31.9,M,19.8,M,,*65
$GPGGA,191426.000,5926.2885,N,02444.7333,E,1,7,1.04,31.9,M,19.8,M,,*61
$GPGGA,191427.000,5926.2885,N,02444.7331,E,1,7,1.04,31.8,M,19.8,M,,*63
$GPGGA,191428.000,5926.2885,N,02444.7330,E,1,7,1.04,31.8,M,19.8,M,,*6D
$GPGGA,191429.000,5926.2885,N,02444.7328,E,1,7,1.04,31.7,M,19.8,M,,*6A
$GPGGA,191430.000,5926.2886,N,02444.7327,E,1,7,1.04,31.7,M,19.8,M,,*6E
$GPGGA,191431.000,5926.2886,N,02444.7326,E,1,7,1.04,31.6,M,19.8,M,,*6F
$GPGGA,191432.000,5926.2886,N,02444.7324,E,1,7,1.04,31.6,M,19.8,M,,*6E
$GPGGA,191433.000,5926.2887,N,02444.7323,E,1,7,1.04,31.5,M,19.8,M,,*6A
$GPGGA,191434.000,5926.2887,N,02444.7322,E,1,7,1.04,31.5,M,19.8,M,,*6C
$GPGGA,191435.000,5926.2887,N,02444.7321,E,1,7,1.04,31.4,M,19.8,M,,*6F
$GPGGA,191436.000,5926.2888,N,02444.7320,E,1,7,1.04,31.4,M,19.8,M,,*62
$GPGGA,191437.000,5926.2888,N,02444.7318,E,1,7,1.04,31.3,M,19.8,M,,*6F
$GPGGA,191438.000,5926.2888,N,02444.7317,E,1,7,1.04,31.3,M,19.8,M,,*6F
$GPGGA,191439.000,5926.2888,N,02444.7315,E,1,7,1.04,31.2,M,19.8,M,,*6D
$GPGGA,191440.000,5926.2888,N,02444.7314,E,1,7,1.04,31.2,M,19.8,M,,*62
$GPGGA,191441.000,5926.2888,N,02444.7313,E,1,7,1.04,31.1,M,19.8,M,,*67
$GPGGA,191442.000,5926.2888,N,02444.7313,E,1,7,1.04,31.1,M,19.8,M,,*64
$GPGGA,191443.000,5926.2888,N,02444.7313,E,1,7,1.04,31.0,M,19.8,M,,*64
$GPGGA,191444.000,5926.2888,N,02444.7313,E,1,7,1.04,31.0,M,19.8,M,,*63
$GPGGA,191445.000,5926.2888,N,02444.7314,E,1,7,1.04,30.9,M,19.8,M,,*6D
$GPGGA,191446.000,5926.2888,N,02444.7315,E,1,7,1.04,30.9,M,19.8,M,,*6F
$GPGGA,191447.000,5926.2889,N,02444.7316,E,1,7,1.04,30.8,M,19.8,M,,*6D
$GPGGA,191448.000,5926.2889,N,02444.7318,E,1,7,1.04,30.8,M,19.8,M,,*6C
$GPGGA,191449.000,5926.2890,N,02444.7320,E,1,6,1.04,30.7,M,19.8,M,,*60
$GPGGA,191450.000,5926.2890,N,02444.7321,E,1,6,1.04,30.7,M,19.8,M,,*69
$GPGGA,191451.000,5926.2890,N,02444.7323,E,1,5,1.22,30.6,M,19.8,M,,*6C
$GPGGA,191452.000,5926.2890,N,02444.7325,E,1,5,1.22,30.6,M,19.8,M,,*69
$GPGGA,191453.000,5926.2890,N,02444.7327,E,1,5,1.22,30.5,M,19.8,M,,*69
$GPGGA,191454.000,5926.2890,N,02444.7328,E,1,6,1.22,30.5,M,19.8,M,,*62
$GPGGA,191455.000,5926.2890,N,02444.7329,E,1,6,1.22,30.4,M,19.8,M,,*63
$GPGGA,191456.000,5926.2890,N,02444.7330,E,1,6,1.22,30.4,M,19.8,M,,*68
$GPGGA,191457.000,5926.2890,N,02444.7330,E,1,6,1.22,30.3,M,19.8,M,,*6E
$GPGGA,191458.000,5926.2890,N,02444.7331,E,1,6,1.22,30.3,M,19.8,M,,*60
$GPGGA,191459.000,5926.2890,N,02444.7331,E,1,7,1.22,30.2,M,19.8,M,,*61
$GPGGA,191500.000,5926.2890,N,02444.7331,E,1,7,1.22,30.2,M,19.8,M,,*6C
$GPGGA,191501.000,5926.2890,N,02444.7331,E,1,6,1.33,30.2,M,19.8,M,,*6C
$GPGGA,191502.000,5926.2889,N,02444.7331,E,1,6,1.33,30.1,M,19.8,M,,*64
$GPGGA,191503.000,5926.2889,N,02444.7330,E,1,6,1.33,30.1,M,19.8,M,,*64
$GPGGA,191504.000,5926.2889,N,02444.7329,E,1,6,1.33,30.0,M,19.8,M,,*6A
$GPGGA,191505.000,5926.2889,N,02444.7328,E,1,6,1.33,30.0,M,19.8,M,,*6A
$GPGGA,191506.000,5926.2888,N,02444.7327,E,1,6,1.22,29.9,M,19.8,M,,*66
$GPGGA,191507.000,5926.2888,N,02444.7326,E,1,6,1.22,29.9,M,19.8,M,,*66
$GPGGA,191508.000,5926.2887,N,02444.7325,E,1,6,1.22,29.8,M,19.8,M,,*64
$GPGGA,191509.000,5926.2887,N,02444.7324,E,1,6,1.22,29.8,M,19.8,M,,*64
$GPGGA,191510.000,5926.2886,N,02444.7323,E,1,6,1.22,29.7,M,19.8,M,,*65
$GPGGA,191511.000,5926.2886,N,02444.7322,E,1,6,1.22,29.7,M,19.8,M,,*65
$GPGGA,191512.000,5926.2886,N,02444.7321,E,1,6,1.22,29.6,M,19.8,M,,*64
$GPGGA,191513.000,5926.2885,N,02444.7320,E,1,6,1.22,29.6,M,19.8,M,,*67
$GPGGA,191514.000,5926.2885,N,02444.7319,E,1,6,1.33,29.5,M,19.8,M,,*69
$GPGGA,191515.000,5926.2884,N,02444.7318,E,1,6,1.33,29.5,M,19.8,M,,*68
$GPGGA,191516.000,5926.2884,N,02444.7317,E,1,6,1.33,29.4,M,19.8,M,,*65
$GPGGA,191517.000,5926.2883,N,02444.7316,E,1,6,1.33,29.4,M,19.8,M,,*62
$GPGGA,191518.000,5926.2882,N,02444.7315,E,1,6,1.33,29.3,M,19.8,M,,*68
$GPGGA,191519.000,5926.2882,N,02444.7314,E,1,6,1.33,29.3,M,19.8,M,,*68
$GPGGA,191520.000,5926.2881,N,02444.7313,E,1,7,1.33,29.2,M,19.8,M,,*66
$GPGGA,191521.000,5926.2881,N,02444.7313,E,1,7,1.33,29.2,M,19.8,M,,*67
$GPGGA,191522.000,5926.2881,N,02444.7312,E,1,7,1.33,29.2,M,19.8,M,,*65
$GPGGA,191523.000,5926.2881,N,02444.7312,E,1,7,1.33,29.1,M,19.8,M,,*67
$GPGGA,191524.000,5926.2881,N,02444.7312,E,1,7,1.33,29.1,M,19.8,M,,*60
$GPGGA,191525.000,5926.2881,N,02444.7312,E,1,7,1.33,29.0,M,19.8,M,,*60
$GPGGA,191526.000,5926.2881,N,02444.7312,E,1,7,1.33,29.0,M,19.8,M,,*63
$GPGGA,191527.000,5926.2881,N,02444.7312,E,1,7,1.22,28.9,M,19.8,M,,*6A
$GPGGA,191528.000,5926.2881,N,02444.7312,E,1,7,1.22,28.9,M,19.8,M,,*65
$GPGGA,191529.000,5926.2882,N,02444.7312,E,1,7,1.33,28.8,M,19.8,M,,*66
$GPGGA,191530.000,5926.2883,N,02444.7312,E,1,7,1.22,28.8,M,19.8,M,,*6F
$GPGGA,191531.000,5926.2883,N,02444.7312,E,1,7,1.22,28.7,M,19.8,M,,*61
$GPGGA,191532.000,5926.2884,N,02444.7312,E,1,7,1.22,28.7,M,19.8,M,,*65
$GPGGA,191533.000,5926.2885,N,02444.7312,E,1,7,1.33,28.6,M,19.8,M,,*64
$GPGGA,191534.000,5926.2886,N,02444.7312,E,1,7,1.33,28.6,M,19.8,M,,*60
$GPGGA,191535.000,5926.2886,N,02444.7311,E,1,7,1.33,28.6,M,19.8,M,,*62
$GPGGA,191536.000,5926.2887,N,02444.7311,E,1,7,1.33,28.5,M,19.8,M,,*63
$GPGGA,191537.000,5926.2888,N,02444.7310,E,1,7,1.33,28.5,M,19.8,M,,*6C
$GPGGA,191538.000,5926.2888,N,02444.7309,E,1,7,1.22,28.4,M,19.8,M,,*6A
$GPGGA,191539.000,5926.2889,N,02444.7308,E,1,7,1.33,28.4,M,19.8,M,,*6B
$GPGGA,191540.000,5926.2889,N,02444.7308,E,1,7,1.05,28.3,M,19.8,M,,*67
$GPGGA,191541.000,5926.2890,N,02444.7307,E,1,7,1.05,28.3,M,19.8,M,,*61
$GPGGA,191542.000,5926.2890,N,02444.7306,E,1,7,1.04,28.2,M,19.8,M,,*63
$GPGGA,191543.000,5926.2890,N,02444.7306,E,1,7,1.04,28.2,M,19.8,M,,*62
$GPGGA,191544.000,5926.2891,N,02444.7305,E,1,7,1.05,28.2,M,19.8,M,,*66
$GPGGA,191545.000,5926.2891,N,02444.7305,E,1,7,1.04,28.1,M,19.8,M,,*65
$GPGGA,191546.000,5926.2892,N,02444.7304,E,1,7,1.04,28.1,M,19.8,M,,*64
$GPGGA,191547.000,5926.2892,N,02444.7304,E,1,7,1.04,28.0,M,19.8,M,,*64
$GPGGA,191548.000,5926.2893,N,02444.7303,E,1,7,1.04,28.0,M,19.8,M,,*6D
$GPGGA,191549.000,5926.2894,N,02444.7303,E,1,7,1.05,27.9,M,19.8,M,,*6C
$GPGGA,191550.000,5926.2894,N,02444.7302,E,1,7,1.05,27.9,M,19.8,M,,*65
$GPGGA,191551.000,5926.2895,N,02444.7302,E,1,7,1.05,27.8,M,19.8,M,,*64
$GPGGA,191552.000,5926.2895,N,02444.7302,E,1,7,1.05,27.8,M,19.8,M,,*67
$GPGGA,191553.000,5926.2896,N,02444.7302,E,1,7,1.05,27.8,M,19.8,M,,*65
$GPGGA,191554.000,5926.2896,N,02444.7302,E,1,7,1.04,27.7,M,19.8,M,,*6C
$GPGGA,191555.000,5926.2896,N,02444.7302,E,1,7,1.04,27.7,M,19.8,M,,*6D
$GPGGA,191556.000,5926.2896,N,02444.7302,E,1,7,1.04,27.6,M,19.8,M,,*6F
$GPGGA,191557.000,5926.2896,N,02444.7301,E,1,7,1.04,27.6,M,19.8,M,,*6D
$GPGGA,191558.000,5926.2896,N,02444.7301,E,1,7,1.04,27.5,M,19.8,M,,*61
$GPGGA,191559.000,5926.2896,N,02444.7300,E,1,7,1.04,27.5,M,19.8,M,,*61
$GPGGA,191600.000,5926.2896,N,02444.7300,E,1,7,1.04,27.5,M,19.8,M,,*6E
$GPGGA,191601.000,5926.2896,N,02444.7299,E,1,8,1.04,27.4,M,19.8,M,,*60
$GPGGA,191602.000,5926.2897,N,02444.7298,E,1,7,1.04,27.4,M,19.8,M,,*6C
$GPGGA,191603.000,5926.2897,N,02444.7298,E,1,7,1.04,27.3,M,19.8,M,,*6A
$GPGGA,191604.000,5926.2897,N,02444.7297,E,1,8,1.05,27.3,M,19.8,M,,*6C
$GPGGA,191605.000,5926.2897,N,02444.7296,E,1,7,1.05,27.2,M,19.8,M,,*62
$GPGGA,191606.000,5926.2897,N,02444.7296,E,1,8,1.05,27.2,M,19.8,M,,*6E
$GPGGA,191607.000,5926.2897,N,02444.7296,E,1,7,1.04,27.2,M,19.8,M,,*61
$GPGGA,191608.000,5926.2896,N,02444.7295,E,1,7,1.04,27.1,M,19.8,M,,*6F
$GPGGA,191609.000,5926.2896,N,02444.7295,E,1,7,1.05,27.1,M,19.8,M,,*6F
$GPGGA,191610.000,5926.2896,N,02444.7294,E,1,7,1.05,27.1,M,19.8,M,,*66
$GPGGA,191611.000,5926.2896,N,02444.7293,E,1,8,0.93,27.0,M,19.8,M,,*60
$GPGGA,191612.000,5926.2896,N,02444.7292,E,1,7,1.06,27.0,M,19.8,M,,*60
$GPGGA,191613.000,5926.2895,N,02444.7291,E,1,7,1.05,26.9,M,19.8,M,,*6A
$GPGGA,191614.000,5926.2895,N,02444.7289,E,1,7,1.04,26.9,M,19.8,M,,*65
$GPGGA,191615.000,5926.2895,N,02444.7288,E,1,7,1.04,26.8,M,19.8,M,,*64
$GPGGA,191616.000,5926.2894,N,02444.7285,E,1,7,1.04,26.8,M,19.8,M,,*6B
$GPGGA,191617.000,5926.2893,N,02444.7283,E,1,7,1.04,26.8,M,19.8,M,,*6B
$GPGGA,191618.000,5926.2893,N,02444.7281,E,1,7,1.04,26.7,M,19.8,M,,*69
$GPGGA,191619.000,5926.2892,N,02444.7279,E,1,7,1.04,26.7,M,19.8,M,,*6E
$GPGGA,191620.000,5926.2892,N,02444.7277,E,1,7,1.04,26.6,M,19.8,M,,*6B
$GPGGA,191621.000,5926.2891,N,02444.7275,E,1,7,1.04,26.6,M,19.8,M,,*6B
$GPGGA,191622.000,5926.2890,N,02444.7274,E,1,7,1.04,26.5,M,19.8,M,,*6B
$GPGGA,191623.000,5926.2890,N,02444.7272,E,1,7,1.04,26.5,M,19.8,M,,*6C
$GPGGA,191624.000,5926.2889,N,02444.7271,E,1,7,1.04,26.5,M,19.8,M,,*60
$GPGGA,191625.000,5926.2889,N,02444.7269,E,1,7,1.04,26.4,M,19.8,M,,*69
$GPGGA,191626.000,5926.2888,N,02444.7268,E,1,7,1.04,26.4,M,19.8,M,,*6A
$GPGGA,191627.000,5926.2888,N,02444.7266,E,1,7,1.04,26.3,M,19.8,M,,*62
$GPGGA,191628.000,5926.2887,N,02444.7265,E,1,7,1.04,26.3,M,19.8,M,,*61
$GPGGA,191629.000,5926.2886,N,02444.7263,E,1,6,1.22,26.3,M,19.8,M,,*62
$GPGGA,191630.000,5926.2886,N,02444.7262,E,1,6,1.32,26.2,M,19.8,M,,*6B
$GPGGA,191631.000,5926.2885,N,02444.7260,E,1,7,1.33,26.2,M,19.8,M,,*6B
$GPGGA,191632.000,5926.2885,N,02444.7259,E,1,6,1.32,26.1,M,19.8,M,,*61
$GPGGA,191633.000,5926.2885,N,02444.7258,E,1,6,1.22,26.1,M,19.8,M,,*60
$GPGGA,191634.000,5926.2884,N,02444.7257,E,1,6,1.22,26.1,M,19.8,M,,*69
$GPGGA,191635.000,5926.2884,N,02444.7257,E,1,6,1.22,26.0,M,19.8,M,,*69
$GPGGA,191636.000,5926.2883,N,02444.7256,E,1,6,1.22,26.0,M,19.8,M,,*6C
$GPGGA,191637.000,5926.2883,N,02444.7256,E,1,6,1.22,26.0,M,19.8,M,,*6D
$GPGGA,191638.000,5926.2882,N,02444.7255,E,1,6,1.22,25.9,M,19.8,M,,*6A
$GPGGA,191639.000,5926.2882,N,02444.7255,E,1,6,1.22,25.9,M,19.8,M,,*6B
$GPGGA,191640.000,5926.2881,N,02444.7255,E,1,6,1.22,25.8,M,19.8,M,,*67
$GPGGA,191641.000,5926.2880,N,02444.7255,E,1,6,1.22,25.8,M,19.8,M,,*67
$GPGGA,191642.000,5926.2880,N,02444.7255,E,1,6,1.22,25.8,M,19.8,M,,*64
$GPGGA,191643.000,5926.2879,N,02444.7255,E,1,6,1.22,25.7,M,19.8,M,,*6C
$GPGGA,191644.000,5926.2878,N,02444.7255,E,1,6,1.22,25.7,M,19.8,M,,*6A
$GPGGA,191645.000,5926.2877,N,02444.7255,E,1,6,1.22,25.7,M,19.8,M,,*64
$GPGGA,191646.000,5926.2876,N,02444.7256,E,1,6,1.22,25.6,M,19.8,M,,*64
$GPGGA,191647.000,5926.2876,N,02444.7256,E,1,6,1.22,25.6,M,19.8,M,,*65
$GPGGA,191648.000,5926.2875,N,02444.7256,E,1,6,1.22,25.6,M,19.8,M,,*69
$GPGGA,191649.000,5926.2875,N,02444.7256,E,1,6,1.22,25.5,M,19.8,M,,*6B
$GPGGA,191650.000,5926.2874,N,02444.7256,E,1,6,1.22,25.5,M,19.8,M,,*62
$GPGGA,191651.000,5926.2874,N,02444.7256,E,1,6,1.22,25.4,M,19.8,M,,*62
$GPGGA,191652.000,5926.2873,N,02444.7257,E,1,6,1.22,25.4,M,19.8,M,,*67
$GPGGA,191653.000,5926.2872,N,02444.7257,E,1,6,1.22,25.4,M,19.8,M,,*67
$GPGGA,191654.000,5926.2872,N,02444.7257,E,1,6,1.22,25.3,M,19.8,M,,*67
$GPGGA,191655.000,5926.2872,N,02444.7258,E,1,6,1.22,25.3,M,19.8,M,,*69
$GPGGA,191656.000,5926.2871,N,02444.7258,E,1,6,1.22,25.3,M,19.8,M,,*69
$GPGGA,191657.000,5926.2871,N,02444.7258,E,1,6,1.22,25.2,M,19.8,M,,*69
$GPGGA,191658.000,5926.2871,N,02444.7258,E,1,6,1.22,25.2,M,19.8,M,,*66
$GPGGA,191659.000,5926.2871,N,02444.7259,E,1,6,1.22,25.2,M,19.8,M,,*66
$GPGGA,191700.000,5926.2870,N,02444.7259,E,1,6,1.22,25.1,M,19.8,M,,*69
$GPGGA,191701.000,5926.2870,N,02444.7260,E,1,6,1.22,25.1,M,19.8,M,,*62
$GPGGA,191702.000,5926.2870,N,02444.7261,E,1,6,1.22,25.1,M,19.8,M,,*60
$GPGGA,191703.000,5926.2870,N,02444.7262,E,1,6,1.22,25.0,M,19.8,M,,*63
$GPGGA,191704.000,5926.2871,N,02444.7263,E,1,6,1.22,25.0,M,19.8,M,,*64
$GPGGA,191705.000,5926.2871,N,02444.7264,E,1,6,1.22,25.0,M,19.8,M,,*62
$GPGGA,191706.000,5926.2871,N,02444.7265,E,1,6,1.22,24.9,M,19.8,M,,*68
$GPGGA,191707.000,5926.2871,N,02444.7267,E,1,6,1.22,24.9,M,19.8,M,,*6B
$GPGGA,191708.000,5926.2871,N,02444.7268,E,1,6,1.22,24.8,M,19.8,M,,*6A
$GPGGA,191709.000,5926.2871,N,02444.7269,E,1,7,1.22,24.8,M,19.8,M,,*6B
$GPGGA,191710.000,5926.2871,N,02444.7270,E,1,7,1.22,24.8,M,19.8,M,,*6B
$GPGGA,191711.000,5926.2872,N,02444.7272,E,1,7,1.22,24.7,M,19.8,M,,*64
$GPGGA,191712.000,5926.2872,N,02444.7273,E,1,7,1.22,24.7,M,19.8,M,,*66
$GPGGA,191713.000,5926.2872,N,02444.7275,E,1,7,1.22,24.7,M,19.8,M,,*61
$GPGGA,191714.000,5926.2873,N,02444.7276,E,1,7,1.22,24.6,M,19.8,M,,*65
$GPGGA,191715.000,5926.2873,N,02444.7278,E,1,7,1.22,24.6,M,19.8,M,,*6A
$GPGGA,191716.000,5926.2873,N,02444.7279,E,1,7,1.22,24.6,M,19.8,M,,*68
$GPGGA,191717.000,5926.2874,N,02444.7280,E,1,7,1.21,24.5,M,19.8,M,,*68
$GPGGA,191718.000,5926.2875,N,02444.7282,E,1,7,1.22,24.5,M,19.8,M,,*67
$GPGGA,191719.000,5926.2875,N,02444.7283,E,1,7,1.22,24.5,M,19.8,M,,*67
$GPGGA,191720.000,5926.2875,N,02444.7283,E,1,7,1.21,24.4,M,19.8,M,,*6F
$GPGGA,191721.000,5926.2876,N,02444.7284,E,1,7,1.21,24.4,M,19.8,M,,*6A
$GPGGA,191722.000,5926.2876,N,02444.7285,E,1,7,1.22,24.4,M,19.8,M,,*6B
$GPGGA,191723.000,5926.2876,N,02444.7285,E,1,7,1.22,24.3,M,19.8,M,,*6D
$GPGGA,191724.000,5926.2877,N,02444.7286,E,1,7,1.22,24.3,M,19.8,M,,*68
$GPGGA,191725.000,5926.2877,N,02444.7287,E,1,7,1.22,24.3,M,19.8,M,,*68
$GPGGA,191726.000,5926.2877,N,02444.7288,E,1,7,1.22,24.2,M,19.8,M,,*65
$GPGGA,191727.000,5926.2878,N,02444.7289,E,1,7,1.22,24.2,M,19.8,M,,*6A
$GPGGA,191728.000,5926.2878,N,02444.7290,E,1,7,1.22,24.2,M,19.8,M,,*6D
$GPGGA,191729.000,5926.2877,N,02444.7290,E,1,7,1.04,24.1,M,19.8,M,,*64
$GPGGA,191730.000,5926.2877,N,02444.7291,E,1,7,1.04,24.1,M,19.8,M,,*6D
$GPGGA,191731.000,5926.2877,N,02444.7292,E,1,7,1.04,24.1,M,19.8,M,,*6F
$GPGGA,191732.000,5926.2876,N,02444.7292,E,1,7,1.04,24.0,M,19.8,M,,*6C
$GPGGA,191733.000,5926.2876,N,02444.7293,E,1,7,1.04,24.0,M,19.8,M,,*6C
$GPGGA,191734.000,5926.2876,N,02444.7293,E,1,7,1.04,24.0,M,19.8,M,,*6B
$GPGGA,191735.000,5926.2876,N,02444.7293,E,1,7,1.04,23.9,M,19.8,M,,*64
$GPGGA,191736.000,5926.2876,N,02444.7293,E,1,7,1.04,23.9,M,19.8,M,,*67
$GPGGA,191737.000,5926.2876,N,02444.7293,E,1,7,1.04,23.9,M,19.8,M,,*66
$GPGGA,191738.000,5926.2876,N,02444.7293,E,1,7,1.04,23.8,M,19.8,M,,*68
$GPGGA,191739.000,5926.2876,N,02444.7293,E,1,7,1.04,23.8,M,19.8,M,,*69
$GPGGA,191740.000,5926.2877,N,02444.7293,E,1,7,1.04,23.8,M,19.8,M,,*66
$GPGGA,191741.000,5926.2877,N,02444.7292,E,1,7,1.04,23.7,M,19.8,M,,*69
$GPGGA,191742.000,5926.2877,N,02444.7292,E,1,7,1.04,23.7,M,19.8,M,,*6A
$GPGGA,191743.000,5926.2877,N,02444.7291,E,1,7,1.04,23.6,M,19.8,M,,*69
$GPGGA,191744.000,5926.2878,N,02444.7291,E,1,7,1.04,23.6,M,19.8,M,,*61
$GPGGA,191745.000,5926.2878,N,02444.7292,E,1,7,1.04,23.6,M,19.8,M,,*63
$GPGGA,191746.000,5926.2879,N,02444.7292,E,1,7,1.04,23.5,M,19.8,M,,*62
$GPGGA,191747.000,5926.2879,N,02444.7292,E,1,7,1.04,23.5,M,19.8,M,,*63
$GPGGA,191748.000,5926.2880,N,02444.7293,E,1,7,1.04,23.5,M,19.8,M,,*6B
$GPGGA,191749.000,5926.2880,N,02444.7294,E,1,7,1.04,23.4,M,19.8,M,,*6C
$GPGGA,191750.000,5926.2881,N,02444.7294,E,1,7,1.04,23.4,M,19.8,M,,*65
$GPGGA,191751.000,5926.2882,N,02444.7295,E,1,7,1.04,23.4,M,19.8,M,,*66
$GPGGA,191752.000,5926.2882,N,02444.7296,E,1,7,1.04,23.3,M,19.8,M,,*61
$GPGGA,191753.000,5926.2883,N,02444.7297,E,1,7,1.04,23.3,M,19.8,M,,*60
$GPGGA,191754.000,5926.2884,N,02444.7297,E,1,7,1.04,23.3,M,19.8,M,,*60
$GPGGA,191755.000,5926.2884,N,02444.7298,E,1,7,1.04,23.2,M,19.8,M,,*6F
$GPGGA,191756.000,5926.2885,N,02444.7299,E,1,7,1.04,23.2,M,19.8,M,,*6C
$GPGGA,191757.000,5926.2886,N,02444.7299,E,1,7,1.04,23.2,M,19.8,M,,*6E
$GPGGA,191758.000,5926.2886,N,02444.7300,E,1,7,1.04,23.1,M,19.8,M,,*63
$GPGGA,191759.000,5926.2887,N,02444.7301,E,1,7,1.04,23.1,M,19.8,M,,*62
$GPGGA,191800.000,5926.2888,N,02444.7301,E,1,7,1.04,23.1,M,19.8,M,,*6E
$GPGGA,191801.000,5926.2889,N,02444.7302,E,1,7,1.04,23.0,M,19.8,M,,*6C
$GPGGA,191802.000,5926.2890,N,02444.7302,E,1,7,1.04,23.0,M,19.8,M,,*67
$GPGGA,191803.000,5926.2891,N,02444.7303,E,1,7,1.04,23.0,M,19.8,M,,*66
$GPGGA,191804.000,5926.2892,N,02444.7303,E,1,7,1.04,23.0,M,19.8,M,,*62
$GPGGA,191805.000,5926.2893,N,02444.7304,E,1,7,1.04,22.9,M,19.8,M,,*6D
$GPGGA,191806.000,5926.2893,N,02444.7305,E,1,7,1.04,22.9,M,19.8,M,,*6F
$GPGGA,191807.000,5926.2894,N,02444.7305,E,1,7,1.04,22.9,M,19.8,M,,*69
$GPGGA,191808.000,5926.2895,N,02444.7306,E,1,7,1.04,22.8,M,19.8,M,,*65
$GPGGA,191809.000,5926.2895,N,02444.7307,E,1,7,1.04,22.8,M,19.8,M,,*65
$GPGGA,191810.000,5926.2896,N,02444.7307,E,1,7,1.04,22.8,M,19.8,M,,*6E
$GPGGA,191811.000,5926.2897,N,02444.7308,E,1,7,1.04,22.7,M,19.8,M,,*6E
$GPGGA,191812.000,5926.2898,N,02444.7308,E,1,7,1.04,22.7,M,19.8,M,,*62
$GPGGA,191813.000,5926.2898,N,02444.7308,E,1,7,1.04,22.7,M,19.8,M,,*63
$GPGGA,191814.000,5926.2899,N,02444.7309,E,1,7,1.04,22.6,M,19.8,M,,*65
$GPGGA,191815.000,5926.2900,N,02444.7309,E,1,7,1.04,22.6,M,19.8,M,,*65
$GPGGA,191816.000,5926.2901,N,02444.7310,E,1,7,1.04,22.6,M,19.8,M,,*6F
$GPGGA,191817.000,5926.2901,N,02444.7310,E,1,7,1.04,22.6,M,19.8,M,,*6E
$GPGGA,191818.000,5926.2902,N,02444.7311,E,1,7,1.04,22.5,M,19.8,M,,*60
$GPGGA,191819.000,5926.2902,N,02444.7311,E,1,7,1.04,22.5,M,19.8,M,,*61
$GPGGA,191820.000,5926.2903,N,02444.7312,E,1,7,1.04,22.5,M,19.8,M,,*69
$GPGGA,191821.000,5926.2903,N,02444.7312,E,1,7,1.04,22.4,M,19.8,M,,*69
$GPGGA,191822.000,5926.2903,N,02444.7311,E,1,7,1.04,22.4,M,19.8,M,,*69
$GPGGA,191823.000,5926.2903,N,02444.7311,E,1,7,1.04,22.4,M,19.8,M,,*68
$GPGGA,191824.000,5926.2903,N,02444.7311,E,1,7,1.04,22.3,M,19.8,M,,*68
$GPGGA,191825.000,5926.2903,N,02444.7311,E,1,7,1.04,22.3,M,19.8,M,,*69
$GPGGA,191826.000,5926.2902,N,02444.7311,E,1,7,1.04,22.3,M,19.8,M,,*6B
$GPGGA,191827.000,5926.2902,N,02444.7311,E,1,7,1.04,22.2,M,19.8,M,,*6B
$GPGGA,191828.000,5926.2902,N,02444.7310,E,1,7,1.04,22.2,M,19.8,M,,*65
$GPGGA,191829.000,5926.2901,N,02444.7309,E,1,7,1.04,22.2,M,19.8,M,,*6F
$GPGGA,191830.000,5926.2901,N,02444.7309,E,1,7,1.04,22.2,M,19.8,M,,*67
$GPGGA,191831.000,5926.2900,N,02444.7308,E,1,7,1.04,22.1,M,19.8,M,,*65
$GPGGA,191832.000,5926.2900,N,02444.7308,E,1,7,1.04,22.1,M,19.8,M,,*66
$GPGGA,191833.000,5926.2899,N,02444.7307,E,1,7,1.04,22.1,M,19.8,M,,*69
$GPGGA,191834.000,5926.2899,N,02444.7306,E,1,7,1.04,22.0,M,19.8,M,,*6E
$GPGGA,191835.000,5926.2898,N,02444.7305,E,1,7,1.04,22.0,M,19.8,M,,*6D
$GPGGA,191836.000,5926.2898,N,02444.7305,E,1,7,1.04,22.0,M,19.8,M,,*6E
$GPGGA,191837.000,5926.2898,N,02444.7304,E,1,7,1.04,22.0,M,19.8,M,,*6E
$GPGGA,191838.000,5926.2898,N,02444.7303,E,1,7,1.04,21.9,M,19.8,M,,*6C
$GPGGA,191839.000,5926.2898,N,02444.7302,E,1,7,1.04,21.9,M,19.8,M,,*6C
$GPGGA,191840.000,5926.2898,N,02444.7302,E,1,7,1.04,21.9,M,19.8,M,,*62
$GPGGA,191841.000,5926.2898,N,02444.7301,E,1,7,1.04,21.9,M,19.8,M,,*60
$GPGGA,191842.000,5926.2898,N,02444.7301,E,1,7,1.04,21.8,M,19.8,M,,*62
$GPGGA,191843.000,5926.2898,N,02444.7300,E,1,7,1.04,21.8,M,19.8,M,,*62
$GPGGA,191844.000,5926.2898,N,02444.7300,E,1,7,1.04,21.8,M,19.8,M,,*65
$GPGGA,191845.000,5926.2898,N,02444.7299,E,1,7,1.04,21.8,M,19.8,M,,*65
$GPGGA,191846.000,5926.2899,N,02444.7298,E,1,7,1.04,21.7,M,19.8,M,,*69
$GPGGA,191847.000,5926.2899,N,02444.7297,E,1,7,1.04,21.7,M,19.8,M,,*67
$GPGGA,191848.000,5926.2899,N,02444.7296,E,1,7,1.04,21.7,M,19.8,M,,*69
$GPGGA,191849.000,5926.2899,N,02444.7295,E,1,7,1.04,21.7,M,19.8,M,,*6B
$GPGGA,191850.000,5926.2898,N,02444.7294,E,1,7,1.05,21.6,M,19.8,M,,*63
$GPGGA,191851.000,5926.2898,N,02444.7294,E,1,7,1.04,21.6,M,19.8,M,,*63
$GPGGA,191852.000,5926.2898,N,02444.7293,E,1,7,1.04,21.6,M,19.8,M,,*67
$GPGGA,191853.000,5926.2898,N,02444.7293,E,1,7,1.05,21.6,M,19.8,M,,*67
$GPGGA,191854.000,5926.2898,N,02444.7293,E,1,7,1.05,21.6,M,19.8,M,,*60
$GPGGA,191855.000,5926.2898,N,02444.7293,E,1,7,1.05,21.5,M,19.8,M,,*62
$GPGGA,191856.000,5926.2899,N,02444.7293,E,1,7,1.04,21.5,M,19.8,M,,*61
$GPGGA,191857.000,5926.2899,N,02444.7293,E,1,7,1.04,21.5,M,19.8,M,,*60
$GPGGA,191858.000,5926.2899,N,02444.7293,E,1,7,1.04,21.5,M,19.8,M,,*6F
$GPGGA,191859.000,5926.2899,N,02444.7293,E,1,7,1.04,21.5,M,19.8,M,,*6E
$GPGGA,191900.000,5926.2899,N,02444.7293,E,1,7,1.04,21.4,M,19.8,M,,*62
$GPGGA,191901.000,5926.2900,N,02444.7293,E,1,7,1.04,21.4,M,19.8,M,,*62
$GPGGA,191902.000,5926.2900,N,02444.7293,E,1,7,1.04,21.4,M,19.8,M,,*61
$GPGGA,191903.000,5926.2900,N,02444.7293,E,1,7,1.04,21.4,M,19.8,M,,*60
$GPGGA,191904.000,5926.2900,N,02444.7292,E,1,7,1.05,21.4,M,19.8,M,,*67
$GPGGA,191905.000,5926.2901,N,02444.7292,E,1,7,1.04,21.3,M,19.8,M,,*61
$GPGGA,191906.000,5926.2901,N,02444.7291,E,1,7,1.05,21.3,M,19.8,M,,*60
$GPGGA,191907.000,5926.2902,N,02444.7291,E,1,7,1.04,21.3,M,19.8,M,,*63
$GPGGA,191908.000,5926.2902,N,02444.7290,E,1,7,1.04,21.3,M,19.8,M,,*6D
$GPGGA,191909.000,5926.2903,N,02444.7290,E,1,7,1.06,21.3,M,19.8,M,,*6F
$GPGGA,191910.000,5926.2903,N,02444.7289,E,1,7,1.05,21.2,M,19.8,M,,*6D
$GPGGA,191911.000,5926.2903,N,02444.7288,E,1,7,1.05,21.2,M,19.8,M,,*6D
$GPGGA,191912.000,5926.2903,N,02444.7288,E,1,7,1.05,21.2,M,19.8,M,,*6E
$GPGGA,191913.000,5926.2903,N,02444.7287,E,1,7,1.05,21.2,M,19.8,M,,*60
$GPGGA,191914.000,5926.2903,N,02444.7287,E,1,7,1.16,21.2,M,19.8,M,,*65
$GPGGA,191915.000,5926.2903,N,02444.7287,E,1,7,1.06,21.2,M,19.8,M,,*65
$GPGGA,191916.000,5926.2903,N,02444.7287,E,1,7,1.05,21.1,M,19.8,M,,*66
$GPGGA,191917.000,5926.2903,N,02444.7287,E,1,7,1.05,21.1,M,19.8,M,,*67
$GPGGA,191918.000,5926.2903,N,02444.7286,E,1,7,1.06,21.1,M,19.8,M,,*6A
$GPGGA,191919.000,5926.2903,N,02444.7286,E,1,7,1.04,21.1,M,19.8,M,,*69
$GPGGA,191920.000,5926.2903,N,02444.7286,E,1,7,1.05,21.1,M,19.8,M,,*62
$GPGGA,191921.000,5926.2903,N,02444.7286,E,1,7,1.04,21.1,M,19.8,M,,*62
$GPGGA,191922.000,5926.2903,N,02444.7285,E,1,7,1.06,21.1,M,19.8,M,,*60
$GPGGA,191923.000,5926.2902,N,02444.7285,E,1,7,1.04,21.1,M,19.8,M,,*62
$GPGGA,191924.000,5926.2902,N,02444.7285,E,1,7,1.04,21.1,M,19.8,M,,*65
$GPGGA,191925.000,5926.2902,N,02444.7285,E,1,7,1.04,21.0,M,19.8,M,,*65
$GPGGA,191926.000,5926.2901,N,02444.7284,E,1,7,1.06,21.0,M,19.8,M,,*66
$GPGGA,191927.000,5926.2901,N,02444.7284,E,1,7,1.05,21.0,M,19.8,M,,*64
$GPGGA,191928.000,5926.2901,N,02444.7283,E,1,7,1.05,21.0,M,19.8,M,,*6C
$GPGGA,191929.000,5926.2901,N,02444.7283,E,1,7,1.16,21.0,M,19.8,M,,*6F
$GPGGA,191930.000,5926.2900,N,02444.7283,E,1,7,1.05,21.0,M,19.8,M,,*64
$GPGGA,191931.000,5926.2900,N,02444.7282,E,1,7,1.06,21.0,M,19.8,M,,*67
$GPGGA,191932.000,5926.2900,N,02444.7282,E,1,7,1.06,21.0,M,19.8,M,,*64
$GPGGA,191933.000,5926.2900,N,02444.7282,E,1,7,1.05,21.0,M,19.8,M,,*66
$GPGGA,191934.000,5926.2899,N,02444.7282,E,1,7,1.05,20.9,M,19.8,M,,*68
$GPGGA,191935.000,5926.2899,N,02444.7282,E,1,7,1.04,20.9,M,19.8,M,,*68
$GPGGA,191936.000,5926.2899,N,02444.7281,E,1,7,1.04,20.9,M,19.8,M,,*68
$GPGGA,191937.000,5926.2899,N,02444.7281,E,1,7,1.04,20.9,M,19.8,M,,*69
$GPGGA,191938.000,5926.2898,N,02444.7281,E,1,7,1.04,20.9,M,19.8,M,,*67
$GPGGA,191939.000,5926.2898,N,02444.7281,E,1,7,1.04,20.9,M,19.8,M,,*66
$GPGGA,191940.000,5926.2898,N,02444.7281,E,1,7,1.05,20.9,M,19.8,M,,*69
$GPGGA,191941.000,5926.2898,N,02444.7282,E,1,7,1.04,20.9,M,19.8,M,,*6A
$GPGGA,191942.000,5926.2898,N,02444.7282,E,1,7,1.06,20.9,M,19.8,M,,*6B
$GPGGA,191943.000,5926.2897,N,02444.7282,E,1,7,1.04,20.9,M,19.8,M,,*67
$GPGGA,191944.000,5926.2897,N,02444.7282,E,1,7,1.04,20.9,M,19.8,M,,*60
$GPGGA,191945.000,5926.2897,N,02444.7282,E,1,7,1.04,20.9,M,19.8,M,,*61
$GPGGA,191946.000,5926.2897,N,02444.7283,E,1,7,1.04,20.9,M,19.8,M,,*63
$GPGGA,191947.000,5926.2897,N,02444.7283,E,1,7,1.06,20.8,M,19.8,M,,*61
$GPGGA,191948.000,5926.2897,N,02444.7284,E,1,7,1.05,20.8,M,19.8,M,,*6A
$GPGGA,191949.000,5926.2896,N,02444.7284,E,1,7,1.06,20.8,M,19.8,M,,*69
$GPGGA,191950.000,5926.2896,N,02444.7284,E,1,7,1.05,20.8,M,19.8,M,,*62
$GPGGA,191951.000,5926.2896,N,02444.7284,E,1,7,1.05,20.8,M,19.8,M,,*63
$GPGGA,191952.000,5926.2896,N,02444.7284,E,1,7,1.04,20.8,M,19.8,M,,*61
$GPGGA,191953.000,5926.2896,N,02444.7284,E,1,7,1.05,20.8,M,19.8,M,,*61
$GPGGA,191954.000,5926.2896,N,02444.7284,E,1,7,1.04,20.8,M,19.8,M,,*67
$GPGGA,191955.000,5926.2896,N,02444.7285,E,1,7,1.04,20.8,M,19.8,M,,*67
$GPGGA,191956.000,5926.2896,N,02444.7285,E,1,7,1.04,20.8,M,19.8,M,,*64
$GPGGA,191957.000,5926.2896,N,02444.7285,E,1,7,1.04,20.8,M,19.8,M,,*65
$GPGGA,191958.000,5926.2895,N,02444.7285,E,1,7,1.04,20.8,M,19.8,M,,*69
$GPGGA,191959.000,5926.2895,N,02444.7284,E,1,7,1.04,20.8,M,19.8,M,,*69
$GPGGA,192000.000,5926.2895,N,02444.7284,E,1,7,1.04,20.8,M,19.8,M,,*6F
$GPGGA,192001.000,5926.2894,N,02444.7284,E,1,7,1.04,20.8,M,19.8,M,,*6F
$GPGGA,192002.000,5926.2894,N,02444.7285,E,1,7,1.04,20.8,M,19.8,M,,*6D
$GPGGA,192003.000,5926.2894,N,02444.7285,E,1,7,1.04,20.8,M,19.8,M,,*6C
$GPGGA,192004.000,5926.2894,N,02444.7285,E,1,7,1.04,20.8,M,19.8,M,,*6B
$GPGGA,192005.000,5926.2894,N,02444.7286,E,1,7,1.04,20.8,M,19.8,M,,*69
$GPGGA,192006.000,5926.2894,N,02444.7286,E,1,7,1.04,20.8,M,19.8,M,,*6A
$GPGGA,192007.000,5926.2894,N,02444.7286,E,1,7,1.04,20.8,M,19.8,M,,*6B
$GPGGA,192008.000,5926.2893,N,02444.7287,E,1,7,1.04,20.7,M,19.8,M,,*6D
$GPGGA,192009.000,5926.2893,N,02444.7288,E,1,7,1.04,20.7,M,19.8,M,,*63
$GPGGA,192010.000,5926.2893,N,02444.7289,E,1,6,1.21,20.7,M,19.8,M,,*6C
$GPGGA,192011.000,5926.2893,N,02444.7290,E,1,6,1.21,20.7,M,19.8,M,,*65
$GPGGA,192012.000,5926.2893,N,02444.7291,E,1,7,1.04,20.7,M,19.8,M,,*61
$GPGGA,192013.000,5926.2893,N,02444.7292,E,1,7,1.04,20.7,M,19.8,M,,*63
$GPGGA,192014.000,5926.2893,N,02444.7292,E,1,7,1.04,20.7,M,19.8,M,,*64
$GPGGA,192015.000,5926.2893,N,02444.7293,E,1,7,1.04,20.7,M,19.8,M,,*64
$GPGGA,192016.000,5926.2894,N,02444.7294,E,1,7,1.04,20.7,M,19.8,M,,*67
$GPGGA,192017.000,5926.2894,N,02444.7295,E,1,6,1.21,20.7,M,19.8,M,,*61
$GPGGA,192018.000,5926.2894,N,02444.7296,E,1,6,1.21,20.7,M,19.8,M,,*6D
$GPGGA,192019.000,5926.2894,N,02444.7296,E,1,6,1.21,20.7,M,19.8,M,,*6C
$GPGGA,192020.000,5926.2894,N,02444.7297,E,1,6,1.21,20.7,M,19.8,M,,*67
$GPGGA,192021.000,5926.2894,N,02444.7297,E,1,6,1.21,20.7,M,19.8,M,,*66
$GPGGA,192022.000,5926.2894,N,02444.7297,E,1,6,1.21,20.7,M,19.8,M,,*65
$GPGGA,192023.000,5926.2894,N,02444.7297,E,1,6,1.21,20.7,M,19.8,M,,*64
$GPGGA,192024.000,5926.2894,N,02444.7297,E,1,6,1.21,20.7,M,19.8,M,,*63
$GPGGA,192025.000,5926.2895,N,02444.7297,E,1,6,1.21,20.7,M,19.8,M,,*63
$GPGGA,192026.000,5926.2895,N,02444.7296,E,1,6,1.21,20.7,M,19.8,M,,*61
$GPGGA,192027.000,5926.2895,N,02444.7296,E,1,6,1.21,20.7,M,19.8,M,,*60
$GPGGA,192028.000,5926.2895,N,02444.7295,E,1,6,1.21,20.7,M,19.8,M,,*6C
$GPGGA,192029.000,5926.2896,N,02444.7295,E,1,6,1.21,20.7,M,19.8,M,,*6E
$GPGGA,192030.000,5926.2896,N,02444.7294,E,1,6,1.21,20.7,M,19.8,M,,*67
$GPGGA,192031.000,5926.2896,N,02444.7293,E,1,6,1.21,20.7,M,19.8,M,,*61
$GPGGA,192032.000,5926.2896,N,02444.7292,E,1,6,1.21,20.7,M,19.8,M,,*63
$GPGGA,192033.000,5926.2896,N,02444.7291,E,1,6,1.21,20.7,M,19.8,M,,*61
$GPGGA,192034.000,5926.2896,N,02444.7289,E,1,6,1.21,20.7,M,19.8,M,,*6F
$GPGGA,192035.000,5926.2896,N,02444.7288,E,1,6,1.21,20.7,M,19.8,M,,*6F
$GPGGA,192036.000,5926.2896,N,02444.7286,E,1,6,1.21,20.7,M,19.8,M,,*62
$GPGGA,192037.000,5926.2896,N,02444.7284,E,1,6,1.21,20.7,M,19.8,M,,*61
$GPGGA,192038.000,5926.2895,N,02444.7283,E,1,6,1.21,20.7,M,19.8,M,,*6A
$GPGGA,192039.000,5926.2895,N,02444.7281,E,1,6,1.21,20.7,M,19.8,M,,*69
$GPGGA,192040.000,5926.2895,N,02444.7280,E,1,6,1.21,20.7,M,19.8,M,,*66
$GPGGA,192041.000,5926.2895,N,02444.7279,E,1,6,1.21,20.7,M,19.8,M,,*61
$GPGGA,192042.000,5926.2895,N,02444.7277,E,1,6,1.21,20.7,M,19.8,M,,*6C
$GPGGA,192043.000,5926.2895,N,02444.7276,E,1,6,1.21,20.7,M,19.8,M,,*6C
$GPGGA,192044.000,5926.2895,N,02444.7274,E,1,6,1.21,20.7,M,19.8,M,,*69
$GPGGA,192045.000,5926.2895,N,02444.7272,E,1,6,1.21,20.7,M,19.8,M,,*6E
$GPGGA,192046.000,5926.2895,N,02444.7270,E,1,6,1.21,20.7,M,19.8,M,,*6F
$GPGGA,192047.000,5926.2895,N,02444.7268,E,1,6,1.21,20.7,M,19.8,M,,*67
$GPGGA,192048.000,5926.2895,N,02444.7266,E,1,6,1.21,20.7,M,19.8,M,,*66
$GPGGA,192049.000,5926.2895,N,02444.7263,E,1,6,1.21,20.7,M,19.8,M,,*62
$GPGGA,192050.000,5926.2895,N,02444.7261,E,1,6,1.21,20.7,M,19.8,M,,*68
$GPGGA,192051.000,5926.2895,N,02444.7259,E,1,6,1.21,20.7,M,19.8,M,,*62
$GPGGA,192052.000,5926.2895,N,02444.7256,E,1,6,1.21,20.7,M,19.8,M,,*6E
$GPGGA,192053.000,5926.2895,N,02444.7254,E,1,6,1.21,20.7,M,19.8,M,,*6D
$GPGGA,192054.000,5926.2896,N,02444.7252,E,1,6,1.21,20.7,M,19.8,M,,*6F
$GPGGA,192055.000,5926.2896,N,02444.7251,E,1,6,1.21,20.7,M,19.8,M,,*6D
$GPGGA,192056.000,5926.2897,N,02444.7250,E,1,7,1.04,20.7,M,19.8,M,,*68
